"DR.Number","Date.Occurred","Time.Occurred","Hour","Weapon.Description","Status.Description","Address","Cross.Street","Longitude","Latitude"
130101121,"08/31/2013",300,3,"HAND GUN","Invest Cont","800 S  GRAND                        AV","",-118.2579,34.0459
130107496,"02/28/2013",1425,14,"REVOLVER","Adult Arrest","HOPE","VENICE",-118.2676,34.0365
130111328,"04/28/2013",330,3,"UNKNOWN FIREARM","Adult Other","600 N  BUNKER HILL                  AV","",-118.2446,34.0613
130111364,"04/28/2013",1700,17,"OTHER FIREARM","Adult Other","600 N  BUNKER HILL                  AV","",-118.2446,34.0613
130111366,"04/28/2013",300,3,"RIFLE","Adult Other","600 N  FIGUEROA                     ST","",-118.2463,34.0627
130118728,"08/18/2013",1815,18,"REVOLVER","Invest Cont","OLIVE                        ST","17TH                         ST",-118.266,34.0345
130118729,"08/18/2013",1815,18,"REVOLVER","Invest Cont","OLIVE                        ST","17TH                         ST",-118.266,34.0345
130118730,"08/18/2013",1815,18,"REVOLVER","Invest Cont","OLIVE                        ST","17TH                         ST",-118.266,34.0345
130120292,"09/14/2013",230,2,"UNKNOWN FIREARM","Invest Cont","300    BLOOM                        ST","",-118.229,34.0633
130123966,"11/14/2013",2115,21,"UNKNOWN FIREARM","Invest Cont","CARDINAL","ELMYRA",-118.229,34.0633
130200604,"04/19/2013",1410,14,"HAND GUN","Invest Cont","600 S  BONNIE BRAE                  ST","",-118.2725,34.0585
130206332,"02/10/2013",200,2,"UNKNOWN FIREARM","Invest Cont","1600 W  6TH                          ST","",-118.2691,34.057
130209579,"04/06/2013",255,2,"UNKNOWN FIREARM","Invest Cont","BURLINGTON","6TH                          ST",-118.2711,34.0579
130210690,"04/23/2013",1755,17,"HAND GUN","Invest Cont","DILLON","MARATHON",-118.2767,34.0824
130210998,"04/26/2013",2350,23,"HAND GUN","Invest Cont","700    HARTFORD                     AV","",-118.2673,34.0522
130211123,"04/29/2013",2205,22,"UNKNOWN FIREARM","Invest Cont","NORMANDIE                    AV","MONROE",-118.3005,34.0856
130212048,"05/13/2013",120,1,"UNKNOWN FIREARM","Invest Cont","700    HARTFORD                     AV","",-118.2673,34.0522
130212331,"05/16/2013",1615,16,"HAND GUN","Invest Cont","600    SILVER LAKE                  BL","",-118.2791,34.0784
130213080,"05/29/2013",1740,17,"SEMI-AUTOMATIC PISTOL","Invest Cont","4000    MARATHON                     ST","",-118.2868,34.0846
130213124,"05/30/2013",100,1,"UNKNOWN FIREARM","Invest Cont","BONNIE BRAE","3RD                          ST",-118.2702,34.0619
130213576,"06/05/2013",2330,23,"UNKNOWN FIREARM","Invest Cont","1400    COLTON                       ST","",-118.2588,34.0639
130215615,"07/09/2013",2220,22,"UNKNOWN FIREARM","Invest Cont","4000    MARATHON                     ST","",-118.2868,34.0846
130217096,"08/07/2013",2005,20,"HAND GUN","Invest Cont","VIRGIL                       AV","MARATHON                     ST",-118.2868,34.0846
130218772,"09/09/2013",1855,18,"UNKNOWN FIREARM","Invest Cont","BIXEL","COURT",-118.257,34.0642
130222183,"11/14/2013",2030,20,"UNKNOWN FIREARM","Invest Cont","1400    VALENCIA                     ST","",-118.2759,34.0421
130223100,"12/04/2013",1130,11,"UNKNOWN FIREARM","Invest Cont","1100    WILSHIRE                     BL","",-118.2633,34.0524
130223163,"11/28/2013",130,1,"UNKNOWN FIREARM","Invest Cont","500 S  RAMPART                      BL","",-118.2805,34.0636
130223740,"12/16/2013",2205,22,"UNKNOWN FIREARM","Invest Cont","VIRGIL","LOCKWOOD",-118.2869,34.0887
130300567,"02/10/2013",540,5,"UNKNOWN WEAPON/OTHER WEAPON","Invest Cont","3000 W  VERNON                       AV","",-118.3257,34.0037
130301065,"11/09/2013",1915,19,"UNKNOWN FIREARM","Invest Cont","28TH","BRONSON",-118.3338,34.0312
130301157,"12/16/2013",1545,15,"SHOTGUN","Adult Arrest","4100 S  NORMANDIE                    AV","",-118.3002,34.0091
130304637,"01/10/2013",1600,16,"UNKNOWN FIREARM","Invest Cont","800 W  43RD                         ST","",-118.2872,34.0055
130305899,"01/17/2013",2200,22,"UNKNOWN WEAPON/OTHER WEAPON","Invest Cont","4100 S  FIGUEROA                     ST","",-118.2827,34.0094
130306162,"02/06/2013",300,3,"SEMI-AUTOMATIC PISTOL","Adult Arrest","5500 W  JEFFERSON                    BL","",-118.3662,34.0261
130310005,"04/06/2013",945,9,"SEMI-AUTOMATIC PISTOL","Invest Cont","5100    2ND                          AV","",-118.3193,33.9971
130310059,"04/07/2013",2045,20,"HAND GUN","Invest Cont","5400    CARLIN                       ST","",-118.3615,34.0305
130310984,"04/21/2013",1330,13,"UNKNOWN FIREARM","Invest Cont","1100 W  42ND                         ST","",-118.2941,34.0073
130312497,"05/13/2013",1900,19,"SEMI-AUTOMATIC PISTOL","Invest Cont","4300 S  WESTERN                      AV","",-118.3089,34.0052
130312546,"05/14/2013",1105,11,"HAND GUN","Invest Cont","1600    LEIGHTON                     AV","",-118.3089,34.0128
130312783,"05/17/2013",2310,23,"HAND GUN","Invest Cont","1500 W  22ND                         PL","",-118.2915,34.0357
130313777,"06/01/2013",1110,11,"HAND GUN","Invest Cont","EXPOSITION","S  BUDLONG                      AV",-118.2958,34.0184
130315423,"06/26/2013",2145,21,"HAND GUN","Invest Cont","1400 W  29TH                         ST","",-118.2915,34.0287
130317213,"07/27/2013",100,1,"HAND GUN","Invest Cont","3600    CRENSHAW                     BL","",-118.3351,34.0241
130317773,"08/06/2013",1820,18,"HAND GUN","Adult Arrest","4100    HALLDALE                     AV","",-118.3023,34.0093
130317882,"08/08/2013",1120,11,"HAND GUN","Invest Cont","4800 W  ADAMS                        BL","",-118.3451,34.0326
130318521,"08/18/2013",2210,22,"UNKNOWN FIREARM","Invest Cont","4800    2ND                          AV","",-118.3192,34.0001
130319905,"09/07/2013",1230,12,"UNKNOWN WEAPON/OTHER WEAPON","Invest Cont","4800 W  ADAMS                        BL","",-118.3451,34.0326
130320402,"09/14/2013",300,3,"HAND GUN","Invest Cont","4300    9TH                          AV","",-118.3267,34.0055
130320687,"09/19/2013",2300,23,"HAND GUN","Invest Cont","4200 S  FLOWER                       ST","",-118.2815,34.0074
130321358,"09/30/2013",2335,23,"UNKNOWN FIREARM","Invest Cont","3600    RUTHELEN                     ST","",-118.3128,34.0219
130321628,"10/06/2013",330,3,"HAND GUN","Invest Cont","800 W  40TH                         PL","",-118.2872,34.0101
130322223,"10/15/2013",225,2,"UNKNOWN FIREARM","Invest Cont","W  24TH                         ST","CIMARRON",-118.3155,34.0349
130325526,"12/07/2013",1535,15,"UNKNOWN WEAPON/OTHER WEAPON","Invest Cont","1500 W  35TH                         ST","",-118.3031,34.0246
130326358,"12/21/2013",1715,17,"UNKNOWN FIREARM","Invest Cont","4300 W  ADAMS                        BL","",-118.3333,34.0326
130326632,"12/25/2013",2000,20,"HAND GUN","Invest Cont","900 W  42ND                         ST","",-118.29,34.0074
130400503,"01/01/2013",5,0,"UNKNOWN FIREARM","Invest Cont","3200    MALABAR                      ST","",-118.1943,34.0449
130400518,"01/11/2013",1540,15,"UNKNOWN FIREARM","Invest Cont","2500    EASTLAKE                     AV","",-118.2078,34.0755
130400576,"02/17/2013",1425,14,"HAND GUN","Adult Arrest","5100    ITHACA                       AV","",-118.1754,34.0722
130400649,"03/25/2013",2220,22,"HAND GUN","Invest Cont","COMMODORE","MALLARD",-118.1964,34.0768
130400784,"06/18/2013",1950,19,"SHOTGUN","Adult Arrest","3100    MALABAR                      ST","",-118.1966,34.0459
130400804,"06/29/2013",1300,13,"UNKNOWN FIREARM","Invest Cont","1100    STONE                        ST","",-118.1932,34.0509
130400957,"09/28/2013",2330,23,"HAND GUN","Invest Cont","JOHNSTON                     ST","FONDA                        WY",-118.2101,34.0792
130400972,"10/05/2013",1900,19,"UNKNOWN FIREARM","Invest Cont","3200    FOLSOM                       ST","",-118.1954,34.0434
130400985,"10/13/2013",2345,23,"UNKNOWN FIREARM","Invest Cont","5200    ITHACA                       AV","",-118.1731,34.0742
130401015,"10/29/2013",1745,17,"UNKNOWN FIREARM","Invest Cont","1500    RICARDO                      ST","",-118.198,34.0602
130401020,"11/01/2013",2040,20,"UNKNOWN FIREARM","Invest Cont","2300    SHERIDAN                     ST","",-118.2078,34.0508
130401023,"11/03/2013",135,1,"HAND GUN","Adult Other","WHITTIER","LORENA",-118.1985,34.0267
130401113,"12/22/2013",1930,19,"HAND GUN","Adult Arrest","2200    ROGERS                       AV","",-118.2181,34.0362
130401116,"12/25/2013",100,1,"UNKNOWN FIREARM","Invest Cont","EAGLE                        ST","LORENA                       ST",-118.1944,34.0319
130404181,"01/06/2013",100,1,"UNKNOWN FIREARM","Invest Cont","3100    WABASH                       AV","",-118.1944,34.0489
130404441,"01/11/2013",1540,15,"UNKNOWN FIREARM","Invest Cont","2500    EASTLAKE                     AV","",-118.2078,34.0755
130404442,"01/11/2013",1540,15,"UNKNOWN FIREARM","Invest Cont","2500    EASTLAKE                     AV","",-118.2078,34.0755
130404636,"01/16/2013",1940,19,"UNKNOWN FIREARM","Invest Cont","2500    MEDFORD                      ST","",-118.1961,34.0632
130405169,"01/31/2013",120,1,"HAND GUN","Invest Cont","700    SPENCE                       ST","",-118.1971,34.0288
130405319,"02/03/2013",2130,21,"UNKNOWN FIREARM","Invest Cont","1900    MOZART                       ST","",-118.2191,34.0687
130405609,"02/11/2013",2230,22,"SHOTGUN","Invest Cont","3000    THE MALL","",-118.2112,34.0234
130406196,"02/26/2013",1700,17,"REVOLVER","Invest Cont","SHERIDAN                     ST","CUMMINGS",-118.2094,34.0519
130406785,"03/13/2013",1130,11,"HAND GUN","Invest Cont","3500    PERCY                        ST","",-118.1978,34.0277
130407704,"04/04/2013",2030,20,"RIFLE","Juv Arrest","600 N  CUMMINGS                     ST","",-118.2115,34.0502
130407976,"04/11/2013",1930,19,"UNKNOWN FIREARM","Invest Cont","2000    SHERIDAN                     ST","",-118.2111,34.0526
130408101,"04/15/2013",1630,16,"UNKNOWN FIREARM","Adult Other","3200 E  6TH                          ST","",-118.2022,34.0324
130408756,"05/01/2013",1520,15,"UNKNOWN FIREARM","Invest Cont","600 N  SOTO                         ST","",-118.206,34.0497
130410030,"06/05/2013",1810,18,"HAND GUN","Invest Cont","2700    WABASH                       AV","",-118.2001,34.0514
130410378,"06/15/2013",2230,22,"UNKNOWN FIREARM","Invest Cont","200 S  AVENUE 18","",-118.2224,34.0716
130410414,"06/16/2013",315,3,"UNKNOWN FIREARM","Invest Cont","5100    ALMONT                       ST","",-118.1695,34.0906
130411607,"07/16/2013",2115,21,"UNKNOWN FIREARM","Invest Cont","2300    HANCOCK                      ST","",-118.209,34.072
130411712,"07/19/2013",1220,12,"HAND GUN","Invest Cont","8TH","CONCORD",-118.2053,34.0218
130412818,"08/18/2013",235,2,"SHOTGUN","Invest Cont","1300    RIO VISTA                    AV","",-118.2219,34.0265
130412880,"08/19/2013",110,1,"HAND GUN","Invest Cont","3300 E  8TH                          ST","",-118.207,34.0226
130413929,"09/13/2013",2140,21,"UNKNOWN FIREARM","Invest Cont","300    GERTRUDE                     ST","",-118.2174,34.0444
130415036,"10/13/2013",1905,19,"UNKNOWN FIREARM","Invest Cont","400 N  BREED                        ST","",-118.2078,34.0488
130415905,"11/05/2013",1935,19,"UNKNOWN FIREARM","Invest Cont","FOLSOM                       ST","FOREST                       ST",-118.2009,34.0458
130416821,"12/02/2013",2000,20,"SEMI-AUTOMATIC PISTOL","Invest Cont","200 S  AVENUE 18","",-118.2224,34.0716
130417483,"12/21/2013",2120,21,"OTHER FIREARM","Invest Cont","EDLOFT                       AV","GREY                         DR",-118.1848,34.0841
130500557,"01/19/2013",2140,21,"HAND GUN","Adult Arrest","2000 S  PACIFIC                      AV","",-118.288,33.7261
130500615,"02/03/2013",2230,22,"UNKNOWN FIREARM","Invest Cont","400 W  3RD                          ST","",-118.2857,33.7415
130500616,"02/03/2013",2200,22,"UNKNOWN FIREARM","Invest Cont","400 W  3RD                          ST","",-118.2857,33.7415
130500634,"02/11/2013",1440,14,"UNKNOWN FIREARM","Invest Cont","1400 E  OPP                          ST","",-118.2463,33.7838
130500652,"02/14/2013",650,6,"HAND GUN","Invest Cont","2000 S  LELAND                       ST","",-118.3012,33.7261
130500757,"03/24/2013",200,2,"HAND GUN","Invest Cont","1300    WILMINGTON                   BL","",-118.2749,33.7887
130500886,"05/12/2013",410,4,"UNKNOWN FIREARM","Invest Cont","BLINN","CRUCES",-118.2456,33.7935
130500984,"06/23/2013",1020,10,"UNKNOWN FIREARM","Invest Cont","1300 W  CHANDLER                     ST","",-118.2785,33.7958
130500986,"06/23/2013",600,6,"UNKNOWN FIREARM","Invest Cont","300 W  SEPULVEDA                    ST","",-118.2835,33.7451
130501233,"09/28/2013",555,5,"UNKNOWN FIREARM","Invest Cont","PALOS VERDES                 ST","OFARRELL                     ST",-118.2817,33.746
130501287,"10/27/2013",400,4,"UNKNOWN FIREARM","Invest Cont","1500 W  207TH                        ST","",-118.304,33.8429
130504274,"01/06/2013",2120,21,"HAND GUN","Invest Cont","1500    BAYVIEW                      AV","",-118.2709,33.7929
130504631,"01/14/2013",1900,19,"UNKNOWN FIREARM","Invest Cont","1400 S  PALOS VERDES                 ST","",-118.2814,33.7315
130504801,"01/18/2013",2030,20,"HAND GUN","Adult Arrest","200 S  HARBOR                       BL","",-118.2796,33.7424
130504876,"01/21/2013",145,1,"SEMI-AUTOMATIC PISTOL","Invest Cont","1000 E  CRUCES                       ST","",-118.2512,33.7933
130505088,"01/25/2013",2330,23,"HAND GUN","Invest Cont","700    GULF                         AV","",-118.2727,33.778
130505090,"01/26/2013",115,1,"SEMI-AUTOMATIC PISTOL","Invest Cont","1000    MCDONALD                     AV","",-118.2712,33.7824
130505180,"01/27/2013",2050,20,"UNKNOWN FIREARM","Adult Other","1100    PIONEER                      AV","",-118.248,33.7851
130505219,"01/28/2013",2100,21,"UNKNOWN FIREARM","Invest Cont","500 W  12TH                         ST","",-118.2879,33.7333
130505234,"01/28/2013",1630,16,"UNKNOWN FIREARM","Invest Cont","1500 E  SANDISON                     ST","",-118.2456,33.7944
130505297,"01/30/2013",2210,22,"SEMI-AUTOMATIC PISTOL","Invest Cont","400 N  NEPTUNE                      AV","",-118.2685,33.7738
130505318,"01/29/2013",1830,18,"UNKNOWN FIREARM","Invest Cont","18TH","CABRILLO",-118.2946,33.7279
130505484,"02/04/2013",650,6,"SEMI-AUTOMATIC PISTOL","Invest Cont","900 W  OLIVER                       ST","",-118.2967,33.7468
130505529,"02/05/2013",1455,14,"UNKNOWN FIREARM","Invest Cont","L","HYATT",-118.2537,33.7872
130506152,"02/20/2013",1255,12,"UNKNOWN FIREARM","Invest Cont","1600    BROAD                        AV","",-118.262,33.7955
130506440,"02/25/2013",2300,23,"AUTOMATIC WEAPON/SUB-MACHINE GUN","Invest Cont","1600 W  259TH                        ST","",-118.3043,33.7882
130506976,"03/09/2013",225,2,"HAND GUN","Invest Cont","1500 E  O                            ST","",-118.2455,33.7927
130506977,"03/09/2013",225,2,"HAND GUN","Invest Cont","1400    BLINN                        AV","",-118.2455,33.7927
130507279,"03/15/2013",2020,20,"SEMI-AUTOMATIC PISTOL","Invest Cont","1600    WILMINGTON                   BL","",-118.2752,33.7951
130507862,"03/28/2013",2305,23,"HAND GUN","Invest Cont","3RD","WALKER",-118.3043,33.7415
130508131,"04/04/2013",1105,11,"HAND GUN","Invest Cont","BLINN","O",-118.2455,33.7927
130508944,"04/24/2013",1100,11,"UNKNOWN FIREARM","Invest Cont","1300    EUBANK                       AV","",-118.256,33.7892
130509632,"05/08/2013",100,1,"UNKNOWN FIREARM","Invest Cont","1300 S  LELAND                       ST","",-118.3012,33.7325
130509734,"05/10/2013",240,2,"HAND GUN","Invest Cont","1500 E  O                            ST","",-118.2455,33.7927
130509951,"05/13/2013",2235,22,"HAND GUN","Invest Cont","300    KING                         AV","",-118.2749,33.7735
130509984,"05/14/2013",2110,21,"HAND GUN","Invest Cont","500 W  8TH                          ST","",-118.2879,33.737
130510126,"05/17/2013",2105,21,"SEMI-AUTOMATIC PISTOL","Adult Arrest","1500    BLINN                        AV","",-118.2456,33.7944
130510284,"05/17/2013",2200,22,"UNKNOWN FIREARM","Invest Cont","1000 E  O                            ST","",-118.2511,33.7924
130511419,"06/18/2013",50,0,"REVOLVER","Invest Cont","1500 E  O                            ST","",-118.2455,33.7927
130511638,"06/22/2013",2110,21,"REVOLVER","Invest Cont","500 W  17TH                         ST","",-118.288,33.7288
130512554,"07/14/2013",2155,21,"SEMI-AUTOMATIC PISTOL","Invest Cont","400 S  MEYLER                       ST","",-118.2967,33.7406
130512756,"07/19/2013",2230,22,"UNKNOWN FIREARM","Invest Cont","252ND","MARIGOLD",-118.2959,33.7958
130512760,"07/19/2013",2300,23,"STRAIGHT RAZOR","Adult Arrest","800 W  3RD                          ST","",-118.2945,33.7415
130512796,"07/20/2013",1815,18,"UNKNOWN FIREARM","Invest Cont","253RD                        ST","VERMONT                      AV",-118.2908,33.7947
130513167,"07/30/2013",1710,17,"UNKNOWN FIREARM","Invest Cont","500 W  8TH                          ST","",-118.2879,33.737
130513657,"08/12/2013",1815,18,"UNKNOWN FIREARM","Invest Cont","500 W  9TH                          ST","",-118.2879,33.7361
130513839,"08/17/2013",300,3,"SHOTGUN","Invest Cont","1100 W  Q                            ST","",-118.2764,33.7943
130514031,"08/20/2013",2200,22,"HAND GUN","Adult Arrest","LELAND                       ST","24TH                         ST",-118.3012,33.7225
130515038,"09/11/2013",1110,11,"HAND GUN","Invest Cont","1600 W  206TH                        ST","",-118.3066,33.8438
130515072,"09/08/2013",2100,21,"UNKNOWN FIREARM","Invest Cont","900    BAYVIEW                      AV","",-118.27,33.781
130515200,"09/14/2013",1850,18,"SEMI-AUTOMATIC PISTOL","Invest Cont","1400    GULF                         AV","",-118.2739,33.7906
130515366,"09/16/2013",2325,23,"UNKNOWN FIREARM","Invest Cont","400 N  PALOS VERDES                 ST","",-118.2817,33.746
130516150,"10/05/2013",2300,23,"SEMI-AUTOMATIC PISTOL","Adult Arrest","600    BAYVIEW                      AV","",-118.27,33.7767
130517974,"11/15/2013",2250,22,"UNKNOWN FIREARM","Invest Cont","800 W  SEPULVEDA                    ST","",-118.2945,33.7456
130518017,"11/17/2013",30,0,"UNKNOWN FIREARM","Invest Cont","BLINN                        AV","DENNI                        ST",-118.245,33.7854
130518543,"11/30/2013",1945,19,"UNKNOWN FIREARM","Invest Cont","1500 W  ANAHEIM                      ST","",-118.302,33.7845
130613334,"05/11/2013",340,3,"REVOLVER","Invest Cont","6500    LA MIRADA                    AV","",-118.331,34.0935
130615063,"06/05/2013",2020,20,"HAND GUN","Invest Cont","SERRANO","ROMAINE",-118.3065,34.0885
130617094,"07/07/2013",215,2,"HAND GUN","Invest Cont","1400 N  GOWER                        ST","",-118.3223,34.0962
130617177,"07/08/2013",330,3,"REVOLVER","Adult Arrest","TAFT","HOLLYWOOD                    BL",-118.3147,34.1017
130617855,"07/11/2013",1700,17,"HAND GUN","Adult Arrest","6500    YUCCA                        ST","",-118.3311,34.1039
130618241,"07/23/2013",1725,17,"AIR PISTOL/REVOLVER/RIFLE/BB GUN","Adult Arrest","7300    FOUNTAIN                     AV","",-118.3501,34.0944
130619095,"08/06/2013",220,2,"SEMI-AUTOMATIC PISTOL","Invest Cont","6400    YUCCA                        ST","",-118.3297,34.104
130625819,"11/27/2013",1815,18,"HAND GUN","Invest Cont","5800    CARLTON                      WY","",-118.3166,34.1005
130625891,"11/29/2013",100,1,"UNKNOWN FIREARM","Invest Cont","1800 N  VAN NESS                     AV","",-118.3158,34.1038
130626089,"12/03/2013",1925,19,"HAND GUN","Adult Arrest","6200    DE LONGPRE                   AV","",-118.3237,34.0962
130709978,"05/18/2013",2230,22,"REVOLVER","Adult Other","1800    THURMAN                      AV","",-118.3647,34.0426
130713019,"07/29/2013",2020,20,"UNKNOWN FIREARM","Invest Cont","4500    PICKFORD                     ST","",-118.3376,34.0399
130800512,"01/04/2013",2050,20,"HAND GUN","Invest Cont","2300    CHARITON                     ST","",-118.378,34.0385
130801231,"07/22/2013",1100,11,"REVOLVER","Adult Arrest","1700    PURDUE                       AV","",-118.4493,34.0442
130811644,"07/15/2013",430,4,"RIFLE","Adult Arrest","2000 S  GARTH                        AV","",-118.3791,34.0408
130812539,"08/05/2013",1716,17,"UNKNOWN FIREARM","Invest Cont","500 S  SEPULVEDA                    BL","",-118.4602,34.0662
130812546,"08/05/2013",1840,18,"OTHER FIREARM","Adult Other","1600    BENEDICT CANYON              DR","",-118.4345,34.0998
130813069,"08/19/2013",1100,11,"UNKNOWN FIREARM","Invest Cont","2600    CHARITON                     ST","",-118.3791,34.036
130813070,"08/19/2013",1100,11,"UNKNOWN FIREARM","Invest Cont","2600    CHARITON                     ST","",-118.3791,34.036
130815656,"10/22/2013",2300,23,"UNKNOWN FIREARM","Invest Cont","2600 S  CORNING                      ST","",-118.3816,34.0356
130817004,"11/24/2013",1850,18,"HAND GUN","Adult Other","2800 S  CORNING                      ST","",-118.3821,34.0348
130900605,"02/17/2013",1130,11,"UNKNOWN FIREARM","Invest Cont","6500    FULTON                       AV","",-118.4225,34.1885
130900657,"03/09/2013",850,8,"UNKNOWN FIREARM","Invest Cont","5800    WOODMAN                      AV","",-118.4312,34.1758
130900899,"06/24/2013",745,7,"UNKNOWN FIREARM","Invest Cont","6500    HAZELTINE                    AV","",-118.44,34.1885
130901176,"10/20/2013",430,4,"UNKNOWN FIREARM","Invest Cont","15500    VANOWEN                      ST","",-118.4705,34.1939
130904825,"01/19/2013",2145,21,"UNKNOWN FIREARM","Invest Cont","13700    VANOWEN                      ST","",-118.4312,34.194
130906235,"02/17/2013",1805,18,"SHOTGUN","Adult Other","4400    MURIETTA                     AV","",-118.4383,34.1504
130906890,"03/03/2013",2215,22,"HAND GUN","Invest Cont","BURNET                       AV","CLARK                        ST",-118.4629,34.1685
130908013,"03/24/2013",2350,23,"UNKNOWN FIREARM","Invest Cont","14600    CALVERT                      ST","",-118.4509,34.1817
130908042,"03/25/2013",1500,15,"UNKNOWN WEAPON/OTHER WEAPON","Invest Cont","14700    VICTORY                      BL","",-118.4531,34.1867
130914108,"07/23/2013",2340,23,"REVOLVER","Invest Cont","13700    WYANDOTTE                    ST","",-118.4313,34.2031
130917380,"09/24/2013",325,3,"HAND GUN","Invest Cont","14200    FRIAR                        ST","",-118.4422,34.1857
130917661,"09/28/2013",2150,21,"HAND GUN","Invest Cont","15300    COHASSET                     ST","",-118.4662,34.2066
130918278,"10/12/2013",940,9,"SEMI-AUTOMATIC PISTOL","Adult Other","14200    VANOWEN                      ST","",-118.4421,34.1939
131000578,"03/02/2013",2300,23,"HAND GUN","Invest Cont","4800    HAYVENHURST                  AV","",-118.4923,34.1576
131000627,"04/05/2013",230,2,"HAND GUN","Invest Cont","18200    SATICOY                      ST","",-118.5298,34.2084
131000628,"04/05/2013",2330,23,"HAND GUN","Invest Cont","6200    RESEDA                       BL","",-118.536,34.183
131000629,"04/05/2013",2310,23,"HAND GUN","Invest Cont","6200    RESEDA                       BL","",-118.536,34.183
131004863,"01/20/2013",1745,17,"HAND GUN","Invest Cont","SATICOY","WOODLEY",-118.4837,34.2085
131006353,"02/23/2013",1915,19,"REVOLVER","Invest Cont","SAN DIEGO                    FY","SHERMAN                      WY",-118.4733,34.2012
131006356,"02/22/2013",2313,23,"OTHER FIREARM","Invest Cont","18600    BURBANK                      BL","",-118.5393,34.1724
131006393,"02/25/2013",2355,23,"HAND GUN","Invest Cont","BLYTHE","GLORIA",-118.4793,34.2148
131008028,"04/01/2013",2355,23,"HAND GUN","Invest Cont","15700    SATICOY                      ST","",-118.4749,34.2085
131008526,"04/14/2013",540,5,"HAND GUN","Adult Arrest","5300    BALBOA                       BL","",-118.5011,34.1671
131008973,"04/24/2013",820,8,"HAND GUN","Invest Cont","18500    CLARK                        ST","",-118.536,34.1704
131009063,"04/25/2013",2235,22,"SHOTGUN","Invest Cont","8100    YARMOUTH                     AV","",-118.5197,34.2176
101000801,"07/24/2010",2100,21,"UNKNOWN FIREARM","Invest Cont","16700    VENTURA                      BL","",-118.497,34.1583
101707753,"03/08/2010",2040,20,"OTHER FIREARM","Invest Cont","11400    HASKELL                      AV","",-118.4759,34.2773
101014324,"07/29/2010",1820,18,"REVOLVER","Invest Cont","18800    VALERIO                      ST","",-118.5427,34.2048
101015369,"08/19/2010",2355,23,"HAND GUN","Invest Cont","18500    CLARK                        ST","",-118.536,34.1704
131013599,"08/11/2013",500,5,"HAND GUN","Invest Cont","6800    DE CELIS                     PL","",-118.4946,34.1939
101017827,"10/07/2010",2100,21,"HAND GUN","Invest Cont","7300    ETIWANDA                     AV","",-118.5317,34.2032
101019621,"11/13/2010",1835,18,"HAND GUN","Invest Cont","SHIRLEY","COHASSET",-118.5579,34.2066
131014447,"08/30/2013",1950,19,"HAND GUN","Invest Cont","KITTRIDGE","HAYVENHURST",-118.4924,34.1903
131014492,"09/01/2013",115,1,"HAND GUN","Invest Cont","8000    ZELZAH                       AV","",-118.5246,34.2157
101021497,"12/26/2010",2100,21,"HAND GUN","Invest Cont","7200    JAMIESON                     AV","",-118.5219,34.2012
131014904,"09/11/2013",150,1,"HAND GUN","Adult Arrest","15800    SATICOY                      ST","",-118.4771,34.2085
101100546,"01/13/2010",2100,21,"UNKNOWN FIREARM","Invest Cont","GRANADA","ISABEL",-118.2265,34.0973
101100556,"01/15/2010",2345,23,"UNKNOWN FIREARM","Invest Cont","2600    MERCED                       ST","",-118.2268,34.0898
101100614,"01/30/2010",1510,15,"HAND GUN","Invest Cont","TYBURN                       ST","HOLLYDALE",-118.2601,34.114
101100917,"05/02/2010",2045,20,"UNKNOWN FIREARM","Invest Cont","GLENDALE                     BL","GLENDALE                     FY",-118.2638,34.1154
131015047,"09/14/2013",120,1,"SHOTGUN","Adult Arrest","7100    WHITE OAK                    AV","",-118.5186,34.1993
101101007,"05/30/2010",2330,23,"SEMI-AUTOMATIC PISTOL","Invest Cont","BRUNSWICK","SEQUOIA",-118.269,34.1362
101101389,"10/12/2010",1850,18,"UNKNOWN WEAPON/OTHER WEAPON","Invest Cont","3600    BRUNSWICK                    AV","",-118.2602,34.1185
101101516,"12/01/2010",2055,20,"UNKNOWN WEAPON/OTHER WEAPON","Invest Cont","6600 N  FIGUEROA                     ST","",-118.1852,34.1232
101105210,"01/18/2010",1830,18,"SHOTGUN","Invest Cont","200 S  AVENUE 55","",-118.1948,34.106
101106693,"02/15/2010",2100,21,"HAND GUN","Invest Cont","3500    ARROYO SECO                  AV","",-118.2151,34.0878
101107109,"02/22/2010",1615,16,"UNKNOWN FIREARM","Invest Cont","3800 W  SUNSET                       BL","",-118.2788,34.091
101107947,"03/09/2010",2100,21,"UNKNOWN FIREARM","Invest Cont","1000    LANARK                       ST","",-118.1896,34.1342
101110699,"04/19/2010",2315,23,"UNKNOWN FIREARM","Invest Cont","PRESTON                      AV","AVALON                       ST",-118.2513,34.0882
101111424,"05/01/2010",2100,21,"HAND GUN","Invest Cont","4800    SAN MARCOS                   PL","",-118.2086,34.1099
101113060,"05/26/2010",1735,17,"HAND GUN","Invest Cont","5100    GRANADA                      ST","",-118.204,34.1101
101115287,"07/02/2010",2115,21,"HAND GUN","Adult Arrest","400 W  AVENUE 37","",-118.2136,34.0913
101117622,"08/11/2010",2325,23,"UNKNOWN FIREARM","Invest Cont","1500    LAKE SHORE                   AV","",-118.2585,34.0813
131017979,"11/21/2013",1000,10,"HAND GUN","Invest Cont","6700    HAYVENHURST                  AV","",-118.4924,34.1922
131018111,"11/24/2013",1750,17,"HAND GUN","Invest Cont","17200    HATTERAS                     ST","",-118.5076,34.1763
101119782,"09/18/2010",2235,22,"HAND GUN","Adult Arrest","AVENUE 64","ARROYO SECO",-118.1879,34.1093
101122708,"11/11/2010",1535,15,"HAND GUN","Invest Cont","MACEO","CYPRESS                      AV",-118.2236,34.0941
101124781,"12/22/2010",1825,18,"UNKNOWN FIREARM","Invest Cont","3300    PEPPER                       AV","",-118.2226,34.0911
101200548,"01/31/2010",2220,22,"HAND GUN","Invest Cont","1000 W  73RD                         ST","",-118.2918,33.9737
101200718,"05/21/2010",2030,20,"UNKNOWN FIREARM","Invest Cont","2000 W  57TH                         ST","",-118.3138,33.991
131100683,"04/07/2013",325,3,"UNKNOWN FIREARM","Invest Cont","3100    GLENDALE                     BL","",-118.2627,34.1162
131100696,"04/13/2013",2055,20,"UNKNOWN FIREARM","Invest Cont","1300    MOHAWK                       ST","",-118.2647,34.08
101204670,"01/10/2010",2100,21,"HAND GUN","Invest Cont","5200 S  WILTON                       PL","",-118.3149,33.9951
131100922,"07/25/2013",2000,20,"HAND GUN","Invest Cont","3500    FERNCROFT                    RD","",-118.2639,34.1135
101205279,"01/18/2010",2200,22,"UNKNOWN FIREARM","Invest Cont","67TH","BUDLONG                      AV",-118.2958,33.9785
131100956,"08/11/2013",140,1,"UNKNOWN FIREARM","Invest Cont","1800    AVALON                       ST","",-118.2534,34.0869
131101005,"08/31/2013",200,2,"UNKNOWN FIREARM","Invest Cont","200 S  AVENUE 54","",-118.1958,34.1059
131101062,"09/26/2013",2140,21,"UNKNOWN FIREARM","Invest Cont","W  AVENUE 33","VERDUGO                      RD",-118.2361,34.1117
131101083,"10/05/2013",55,0,"HAND GUN","Invest Cont","2600    CARLETON                     AV","",-118.2272,34.0904
101205901,"01/27/2010",1400,14,"HAND GUN","Invest Cont","49TH                         ST","HOOVER                       ST",-118.2871,33.9987
101206157,"01/30/2010",2100,21,"HAND GUN","Invest Cont","800 E  77TH                         ST","",-118.2608,33.9694
131104079,"01/02/2013",1120,11,"UNKNOWN WEAPON/OTHER WEAPON","Invest Cont","1300    WATERLOO                     ST","",-118.2658,34.0804
131104080,"01/01/2013",5,0,"UNKNOWN WEAPON/OTHER WEAPON","Invest Cont","2300    HARWOOD                      ST","",-118.2333,34.0887
101207911,"02/20/2010",2000,20,"UNKNOWN FIREARM","Invest Cont","5800 S  VAN NESS                     AV","",-118.3176,33.9891
101207979,"02/20/2010",1700,17,"UNKNOWN FIREARM","Invest Cont","100 E  84TH                         PL","",-118.2739,33.9619
101208633,"03/02/2010",1050,10,"UNKNOWN FIREARM","Invest Cont","100 E  84TH                         PL","",-118.2739,33.9619
101209478,"03/12/2010",2350,23,"HAND GUN","Invest Cont","FIGUEROA","55TH                         ST",-118.2827,33.9924
131104971,"01/19/2013",310,3,"UNKNOWN FIREARM","Invest Cont","1300    ALLESANDRO                   ST","",-118.2636,34.0795
131105128,"01/21/2013",2220,22,"HAND GUN","Invest Cont","5600    ASH                          ST","",-118.1963,34.1119
101210231,"03/22/2010",1115,11,"UNKNOWN FIREARM","Invest Cont","6000 S  WESTERN                      AV","",-118.3089,33.9856
101212210,"04/16/2010",1150,11,"SEMI-AUTOMATIC PISTOL","Invest Cont","100 E  84TH                         ST","",-118.2739,33.9628
101212366,"04/18/2010",1200,12,"UNKNOWN FIREARM","Invest Cont","200 W  73RD                         ST","",-118.2761,33.9737
131105842,"02/06/2013",355,3,"UNKNOWN FIREARM","Invest Cont","4000    PERLITA                      AV","",-118.2648,34.1255
101212811,"04/24/2010",1330,13,"HAND GUN","Invest Cont","200 W  80TH                         ST","",-118.2761,33.9669
101212975,"04/26/2010",2105,21,"SEMI-AUTOMATIC PISTOL","Invest Cont","1700 W  59TH                         ST","",-118.3068,33.9876
101213696,"05/05/2010",1715,17,"SEMI-AUTOMATIC PISTOL","Invest Cont","200 E  84TH                         PL","",-118.2717,33.9619
101214823,"05/19/2010",1745,17,"UNKNOWN FIREARM","Invest Cont","8500 S  MAIN                         ST","",-118.2739,33.9612
131107028,"03/02/2013",2040,20,"HAND GUN","Invest Cont","300 N  AVENUE 53","",-118.1998,34.1092
101216654,"06/12/2010",1215,12,"UNKNOWN FIREARM","Invest Cont","300 E  80TH                         ST","",-118.2695,33.9665
101216965,"06/15/2010",1630,16,"HAND GUN","Invest Cont","800 W  MANCHESTER                   AV","",-118.287,33.9601
131107332,"03/09/2013",205,2,"HAND GUN","Invest Cont","CHEVY CHASE","BRUNSWICK",-118.269,34.1334
101218151,"07/01/2010",1500,15,"UNKNOWN FIREARM","Invest Cont","8800    HALLDALE                     AV","",-118.3025,33.9582
101218358,"07/04/2010",2300,23,"UNKNOWN FIREARM","Invest Cont","1100 W  61ST                         ST","",-118.2938,33.9842
101218926,"07/12/2010",2155,21,"HAND GUN","Invest Cont","700 E  80TH                         ST","",-118.2629,33.9665
101219157,"07/15/2010",1245,12,"REVOLVER","Invest Cont","800 E  81ST                         ST","",-118.2608,33.9656
101219346,"07/16/2010",2315,23,"HAND GUN","Invest Cont","8400 S  OLIVE                        ST","",-118.2793,33.9624
101222313,"08/25/2010",1745,17,"UNKNOWN WEAPON/OTHER WEAPON","Invest Cont","8300    AVALON                       BL","",-118.2651,33.9638
101223777,"09/14/2010",1515,15,"RIFLE","Invest Cont","200 E  82ND                         ST","",-118.2717,33.9654
101223778,"09/14/2010",1515,15,"RIFLE","Invest Cont","200 E  82ND                         ST","",-118.2717,33.9654
101223800,"09/15/2010",1935,19,"SEMI-AUTOMATIC PISTOL","Invest Cont","8600    DENKER                       AV","",-118.3046,33.96
101224142,"09/16/2010",2325,23,"SEMI-AUTOMATIC PISTOL","Invest Cont","7700 S  HOBART                       BL","",-118.3079,33.97
101224717,"09/28/2010",2220,22,"HAND GUN","Invest Cont","6000    ARLINGTON                    AV","",-118.3186,33.9855
101224718,"09/28/2010",2220,22,"HAND GUN","Invest Cont","6000    ARLINGTON                    AV","",-118.3186,33.9855
131110119,"04/30/2013",1325,13,"HAND GUN","Invest Cont","700 N  AVENUE 51","",-118.2057,34.114
131110300,"05/04/2013",940,9,"HAND GUN","Invest Cont","3100    ARVIA                        ST","",-118.229,34.0969
131110357,"05/05/2013",205,2,"UNKNOWN FIREARM","Invest Cont","1100    ISABEL                       ST","",-118.2228,34.0958
131110788,"05/12/2013",2250,22,"UNKNOWN WEAPON/OTHER WEAPON","Invest Cont","3400    LOOSMORE                     ST","",-118.2243,34.0949
101227691,"11/09/2010",1000,10,"UNKNOWN FIREARM","Invest Cont","1300 W  59TH                         PL","",-118.298,33.9867
131111311,"05/22/2013",30,0,"HAND GUN","Adult Arrest","SHULTS","PASADENA                     FY",-118.2031,34.1154
101229048,"11/28/2010",2130,21,"HAND GUN","Invest Cont","8100    MCKINLEY                     AV","",-118.2608,33.9656
101229486,"12/05/2010",1040,10,"SEMI-AUTOMATIC PISTOL","Invest Cont","BUDLONG                      AV","61ST                         ST",-118.2958,33.9842
101229640,"12/07/2010",1650,16,"UNKNOWN FIREARM","Invest Cont","7000    5TH                          AV","",-118.3226,33.9764
101229747,"12/08/2010",2045,20,"UNKNOWN FIREARM","Invest Cont","2400 W  73RD                         ST","",-118.3199,33.9737
101230158,"12/13/2010",2145,21,"SEMI-AUTOMATIC PISTOL","Invest Cont","1600 W  62ND                         ST","",-118.3046,33.9833
101230169,"12/13/2010",2135,21,"HAND GUN","Invest Cont","6700 S  VAN NESS                     AV","",-118.3177,33.9782
101230170,"12/13/2010",2135,21,"HAND GUN","Invest Cont","6700 S  VAN NESS                     AV","",-118.3177,33.9782
101230318,"12/15/2010",1500,15,"UNKNOWN FIREARM","Invest Cont","1300 W  57TH                         ST","",-118.298,33.991
101230469,"12/17/2010",1450,14,"SEMI-AUTOMATIC PISTOL","Invest Cont","1700 W  45TH                         ST","",-118.3089,34.0028
131111961,"06/01/2013",2130,21,"RIFLE","Adult Other","5500    EATON                        ST","",-118.1976,34.1247
101230750,"12/22/2010",2110,21,"HAND GUN","Invest Cont","6500 S  VICTORIA                     AV","",-118.3323,33.9806
101300580,"03/06/2010",2245,22,"REVOLVER","Adult Arrest","ALAMEDA                      ST","42ND                         ST",-118.2393,34.006
101300588,"03/20/2010",2340,23,"HAND GUN","Invest Cont","200 W  53RD                         ST","",-118.2761,33.9942
101300597,"03/27/2010",2200,22,"HAND GUN","Adult Arrest","58TH                         ST","INSKEEP",-118.2761,33.9877
101300617,"04/03/2010",2300,23,"REVOLVER","Invest Cont","400 E  49TH                         ST","",-118.2696,33.9988
101300625,"04/16/2010",1120,11,"SEMI-AUTOMATIC PISTOL","Invest Cont","22ND                         ST","HOOPER                       AV",-118.2481,34.0189
101300645,"04/19/2010",2145,21,"HAND GUN","Invest Cont","1400 E  48TH                         ST","",-118.2499,34.0002
101300650,"04/24/2010",2145,21,"REVOLVER","Invest Cont","21ST                         ST","COMPTON                      AV",-118.2448,34.0183
101300804,"09/07/2010",1955,19,"HAND GUN","Invest Cont","600 E  43RD                         ST","",-118.2652,34.0057
101300855,"10/23/2010",2040,20,"UNKNOWN FIREARM","Invest Cont","1400 E  51ST                         ST","",-118.2499,33.9967
101304113,"01/02/2010",1930,19,"HAND GUN","Invest Cont","100 W  42ND                         PL","",-118.274,34.0066
101304291,"01/05/2010",1845,18,"REVOLVER","Adult Other","300 E  62ND                         ST","",-118.2695,33.9834
101304343,"01/06/2010",2345,23,"SEMI-AUTOMATIC PISTOL","Invest Cont","2100 S  NAOMI                        AV","",-118.2498,34.021
101304846,"01/13/2010",1445,14,"SEMI-AUTOMATIC PISTOL","Invest Cont","400 E  43RD                         ST","",-118.2685,34.0057
101304952,"01/14/2010",2300,23,"SEMI-AUTOMATIC PISTOL","Invest Cont","100 W  50TH                         ST","",-118.274,33.9974
101305931,"01/29/2010",1945,19,"HAND GUN","Invest Cont","GRIFFITH                     AV","23RD                         ST",-118.2559,34.0224
101305934,"01/29/2010",2255,22,"UNKNOWN FIREARM","Invest Cont","48TH                         ST","MCKINLEY                     AV",-118.2608,34.0003
101307369,"02/21/2010",2100,21,"HAND GUN","Invest Cont","5900 S  MAIN                         ST","",-118.2739,33.9873
101307994,"03/02/2010",2030,20,"SEMI-AUTOMATIC PISTOL","Invest Cont","3100    STANFORD                     AV","",-118.2618,34.0171
101308284,"03/06/2010",1814,18,"REVOLVER","Invest Cont","47TH                         ST","BROADWAY",-118.2783,34.001
101309464,"03/25/2010",2040,20,"SHOTGUN","Invest Cont","600 E  21ST                         ST","",-118.2605,34.0268
101309634,"03/28/2010",1710,17,"HAND GUN","Invest Cont","LATHAM                       ST","53RD                         ST",-118.2514,33.9948
101310824,"04/14/2010",1515,15,"HAND GUN","Invest Cont","41ST                         PL","COMPTON                      AV",-118.2474,34.0077
101311122,"04/19/2010",1115,11,"UNKNOWN WEAPON/OTHER WEAPON","Invest Cont","42ND                         PL","MAIN                         ST",-118.274,34.0065
131113778,"07/06/2013",630,6,"UNKNOWN FIREARM","Invest Cont","1300    SAGINAW                      ST","",-118.1932,34.136
101311619,"04/25/2010",2210,22,"HAND GUN","Invest Cont","VERNON                       AV","HONDURAS                     AV",-118.244,34.0039
101311667,"04/27/2010",1335,13,"HAND GUN","Adult Arrest","3700    WALL                         ST","",-118.27,34.0147
101311773,"04/28/2010",1727,17,"SEMI-AUTOMATIC PISTOL","Invest Cont","4600 S  CENTRAL                      AV","",-118.2565,34.0018
101312438,"05/07/2010",1600,16,"SEMI-AUTOMATIC PISTOL","Invest Cont","100 E  43RD                         ST","",-118.274,34.0057
101312762,"05/11/2010",2116,21,"SEMI-AUTOMATIC PISTOL","Invest Cont","5600    ASCOT                        AV","",-118.2499,33.9921
101313814,"05/29/2010",1715,17,"SEMI-AUTOMATIC PISTOL","Invest Cont","3700    METTLER                      ST","",-118.2664,34.0128
101314377,"06/07/2010",1745,17,"SEMI-AUTOMATIC PISTOL","Adult Arrest","100 W  57TH                         ST","",-118.2739,33.9906
101315114,"06/20/2010",1700,17,"HAND GUN","Invest Cont","22ND","HOOPER",-118.2456,34.0175
101315321,"06/23/2010",2000,20,"SEMI-AUTOMATIC PISTOL","Invest Cont","1400 E  41ST                         PL","",-118.2495,34.0081
101316521,"07/13/2010",1435,14,"UNKNOWN FIREARM","Invest Cont","6100    AVALON                       BL","",-118.2652,33.9843
101317279,"07/23/2010",1930,19,"SEMI-AUTOMATIC PISTOL","Invest Cont","ASCOT                        AV","46TH                         ST",-118.2499,34.0021
101317892,"08/01/2010",2200,22,"HAND GUN","Invest Cont","4800    MCKINLEY                     AV","",-118.2608,33.9999
101318217,"08/05/2010",2315,23,"SEMI-AUTOMATIC PISTOL","Invest Cont","1700 E  OLYMPIC                      BL","",-118.241,34.0293
131115217,"08/04/2013",1415,14,"SAWED OFF RIFLE/SHOTGUN","Invest Cont","2900    ACRESITE                     ST","",-118.2596,34.1101
101318351,"08/07/2010",2230,22,"UNKNOWN FIREARM","Invest Cont","5500 S  MAIN                         ST","",-118.2739,33.9924
101318736,"08/01/2010",1300,13,"HAND GUN","Invest Cont","600 E  21ST                         ST","",-118.2605,34.0268
101318970,"08/16/2010",2245,22,"UNKNOWN FIREARM","Invest Cont","200 W  42ND                         PL","",-118.2762,34.0065
101320737,"09/10/2010",1750,17,"SEMI-AUTOMATIC PISTOL","Invest Cont","5800 S  BROADWAY","",-118.2783,33.9898
101320769,"09/10/2010",2100,21,"UNKNOWN FIREARM","Invest Cont","4400    TOWNE                        AV","",-118.2676,34.0039
101321144,"09/16/2010",2100,21,"SEMI-AUTOMATIC PISTOL","Invest Cont","300 W  47TH                         ST","",-118.2783,34.0011
101321145,"09/16/2010",2100,21,"SEMI-AUTOMATIC PISTOL","Invest Cont","300 W  47TH                         ST","",-118.2783,34.0011
101321334,"09/19/2010",1000,10,"ASSAULT WEAPON/UZI/AK47/ETC","Invest Cont","300 W  66TH                         ST","",-118.2783,33.9798
101321395,"09/20/2010",1515,15,"HAND GUN","Invest Cont","300 E  56TH                         ST","",-118.2701,33.9916
101321724,"09/24/2010",2045,20,"REVOLVER","Adult Arrest","1300 E  56TH                         ST","",-118.2521,33.9921
131115922,"08/18/2013",115,1,"UNKNOWN FIREARM","Invest Cont","AVALON","PRESTON",-118.2529,34.0867
101323452,"10/20/2010",1300,13,"UNKNOWN FIREARM","Invest Cont","800 E  49TH                         ST","",-118.2617,33.9987
131116576,"08/31/2013",225,2,"HAND GUN","Invest Cont","ISABEL                       ST","SILVER                       ST",-118.2329,34.1011
101325926,"11/27/2010",2100,21,"UNKNOWN FIREARM","Invest Cont","4400    TOWNE                        AV","",-118.2676,34.0039
101327732,"12/24/2010",2110,21,"HAND GUN","Invest Cont","1100 E  46TH                         ST","",-118.2565,34.0021
101327750,"12/24/2010",2100,21,"UNKNOWN FIREARM","Invest Cont","700 E  49TH                         ST","",-118.2634,33.9986
101327752,"12/24/2010",2100,21,"UNKNOWN FIREARM","Invest Cont","700 E  49TH                         ST","",-118.2634,33.9986
101327753,"12/24/2010",2100,21,"UNKNOWN FIREARM","Invest Cont","700 E  49TH                         ST","",-118.2634,33.9986
131116958,"09/06/2013",1130,11,"HAND GUN","Invest Cont","1100 N  VERMONT                      AV","",-118.2917,34.0909
131116979,"09/05/2013",2100,21,"HAND GUN","Invest Cont","BRUNSWICK","GOODWIN",-118.269,34.1371
131117186,"09/11/2013",430,4,"UNKNOWN FIREARM","Invest Cont","4600    LOS FELIZ                    BL","",-118.2894,34.1115
131118911,"10/16/2013",2010,20,"UNKNOWN WEAPON/OTHER WEAPON","Invest Cont","AVENUE 57","MONTE VISTA",-118.1944,34.1118
101416414,"07/10/2010",2030,20,"UNKNOWN WEAPON/OTHER WEAPON","Invest Cont","6300 W  84TH                         ST","",-118.3962,33.9618
131119801,"11/05/2013",1630,16,"UNKNOWN FIREARM","Invest Cont","200 N  AVENUE 57","",-118.1936,34.1107
131119968,"11/08/2013",2030,20,"HAND GUN","Invest Cont","AVALON","ECHO PARK",-118.2518,34.0862
101423805,"10/18/2010",1000,10,"UNKNOWN FIREARM","Invest Cont","3900    KEESHEN                      DR","",-118.4279,34.0035
101424156,"10/23/2010",2235,22,"HAND GUN","Adult Arrest","4300    BEETHOVEN                    ST","",-118.4331,33.9909
101425008,"11/02/2010",1700,17,"SEMI-AUTOMATIC PISTOL","Invest Cont","7700    ISIS                         AV","",-118.3773,33.9671
101428119,"12/18/2010",1650,16,"HAND GUN","Adult Arrest","12000    SYLVESTER                    ST","",-118.4233,33.9992
101500519,"01/08/2010",2350,23,"SEMI-AUTOMATIC PISTOL","Invest Cont","13100    VANOWEN                      ST","",-118.4181,34.194
101500879,"04/11/2010",2340,23,"UNKNOWN FIREARM","Invest Cont","SYLVAN                       ST","COLFAX                       AV",-118.3878,34.1849
131200558,"03/02/2013",2125,21,"UNKNOWN FIREARM","Invest Cont","800 E  73RD                         ST","",-118.2608,33.9739
131200644,"06/01/2013",1930,19,"UNKNOWN FIREARM","Invest Cont","66TH","HOOVER",-118.2871,33.9792
101501162,"06/12/2010",2200,22,"HAND GUN","Invest Cont","VENTURA","EUREKA",-118.376,34.1406
131200686,"06/19/2013",2215,22,"SEMI-AUTOMATIC PISTOL","Invest Cont","7700 S  MAIN                         ST","",-118.2739,33.9697
101501250,"07/03/2010",2100,21,"HAND GUN","Invest Cont","5500    KLUMP                        AV","",-118.3752,34.17
101501412,"08/13/2010",2335,23,"SEMI-AUTOMATIC PISTOL","Adult Other","8100    TEESDALE                     AV","",-118.4103,34.2182
131200758,"07/26/2013",845,8,"OTHER FIREARM","Invest Cont","1900 W  64TH                         ST","",-118.3111,33.9814
131200776,"08/12/2013",2300,23,"UNKNOWN FIREARM","Invest Cont","500 W  74TH                         ST","",-118.2827,33.9727
131200777,"08/12/2013",2300,23,"UNKNOWN FIREARM","Invest Cont","500 W  74TH                         ST","",-118.2827,33.9727
131200891,"11/04/2013",1300,13,"UNKNOWN FIREARM","Invest Cont","83RD                         ST","MAIN                         ST",-118.2739,33.9642
101501896,"12/12/2010",2105,21,"OTHER FIREARM","Invest Cont","7000    FULTON                       AV","",-118.4225,34.1976
131200971,"12/25/2013",400,4,"UNKNOWN FIREARM","Invest Cont","700 W  79TH                         ST","",-118.2856,33.9678
131200972,"12/24/2013",200,2,"UNKNOWN FIREARM","Invest Cont","700 W  79TH                         ST","",-118.2856,33.9678
101504503,"01/10/2010",1535,15,"SEMI-AUTOMATIC PISTOL","Invest Cont","CAHUENGA                     BL","VICTORY                      BL",-118.3615,34.186
131204113,"01/01/2013",2100,21,"UNKNOWN FIREARM","Invest Cont","1200 W  53RD                         ST","",-118.2958,33.9941
131204651,"01/10/2013",1000,10,"SEMI-AUTOMATIC PISTOL","Invest Cont","7500 S  SAN PEDRO                    ST","",-118.2695,33.9722
101507048,"02/19/2010",1555,15,"HAND GUN","Invest Cont","VALERIO                      ST","RADFORD",-118.3921,34.2048
131205021,"01/16/2013",10,0,"HAND GUN","Invest Cont","5100 S  VERMONT                      AV","",-118.2915,33.9965
131205672,"01/26/2013",230,2,"REVOLVER","Invest Cont","1900 W  76TH                         ST","",-118.3112,33.9709
101513839,"06/07/2010",1300,13,"AIR PISTOL/REVOLVER/RIFLE/BB GUN","Adult Other","12200    VANOWEN                      ST","",-118.3987,34.194
101515028,"06/26/2010",2340,23,"HAND GUN","Invest Cont","11700    MAGNOLIA                     BL","",-118.3877,34.1649
101515515,"07/04/2010",2005,20,"REVOLVER","Invest Cont","OXNARD                       ST","VINELAND                     AV",-118.3703,34.1794
131206661,"02/06/2013",1,0,"UNKNOWN FIREARM","Invest Cont","6300    10TH                         AV","",-118.3279,33.9829
101517835,"08/16/2010",1855,18,"UNKNOWN FIREARM","Invest Cont","LANKERSHIM                   BL","MIRANDA                      ST",-118.3807,34.175
101518601,"08/28/2010",1050,10,"HAND GUN","Invest Cont","5900    WILLOWCREST                  AV","",-118.3628,34.1784
101518984,"09/04/2010",2345,23,"HAND GUN","Invest Cont","IRVINE                       AV","SHERMAN                      WY",-118.3855,34.2012
101519781,"09/19/2010",2240,22,"SEMI-AUTOMATIC PISTOL","Adult Arrest","11000    HUSTON                       ST","",-118.3706,34.1601
131207451,"02/25/2013",1245,12,"SEMI-AUTOMATIC PISTOL","Invest Cont","58TH                         PL","BRYNHURST                    AV",-118.333,33.9881
131207494,"02/25/2013",1500,15,"HAND GUN","Invest Cont","91ST                         ST","HOBART                       AV",-118.3079,33.9545
101521957,"10/27/2010",1540,15,"REVOLVER","Invest Cont","11000    EMELITA                      ST","",-118.3703,34.1767
101522548,"11/09/2010",1800,18,"UNKNOWN FIREARM","Invest Cont","5400    CORTEEN                      PL","",-118.4019,34.1685
101600650,"02/12/2010",1645,16,"UNKNOWN FIREARM","Invest Cont","7600    BECK                         AV","",-118.3834,34.2085
101600718,"02/26/2010",1720,17,"UNKNOWN FIREARM","Invest Cont","KAGEL CANYON","BRUSSELS",-118.3816,34.2798
131208790,"03/17/2013",1140,11,"UNKNOWN FIREARM","Invest Cont","700 E  76TH                         PL","",-118.263,33.9703
131208801,"03/17/2013",1340,13,"UNKNOWN FIREARM","Invest Cont","5900    WEST                         BL","",-118.3352,33.9872
101600837,"04/02/2010",1207,12,"UNKNOWN FIREARM","Invest Cont","SATICOY","WHITSETT",-118.4052,34.2085
101600949,"05/14/2010",2200,22,"UNKNOWN FIREARM","Invest Cont","13100    EUSTACE                      ST","",-118.4179,34.2824
101601104,"07/18/2010",2140,21,"SHOTGUN","Invest Cont","9100    TELFAIR                      AV","",-118.395,34.2348
101601319,"10/01/2010",1815,18,"UNKNOWN FIREARM","Invest Cont","10100    RINCON                       AV","",-118.4249,34.2535
101605557,"02/02/2010",2230,22,"UNKNOWN FIREARM","Invest Cont","13000    SUNBURST                     ST","",-118.4154,34.2512
101605756,"02/07/2010",2055,20,"UNKNOWN FIREARM","Invest Cont","ARMINTA                      ST","BECK                         AV",-118.3834,34.2139
131209500,"03/26/2013",2315,23,"UNKNOWN FIREARM","Invest Cont","800 E  84TH                         PL","",-118.2608,33.962
101606905,"03/03/2010",1240,12,"HAND GUN","Invest Cont","7700    BEN                          AV","",-118.3943,34.2103
101606970,"03/04/2010",1730,17,"UNKNOWN FIREARM","Invest Cont","12700    VAN NUYS                     BL","",-118.4095,34.2753
101607346,"03/11/2010",1340,13,"HAND GUN","Invest Cont","GOLDEN STATE                 FY","SHELDON",-118.4041,34.2317
101607435,"03/14/2010",1700,17,"UNKNOWN FIREARM","Invest Cont","11600    BORDEN                       AV","",-118.4151,34.2824
131209749,"03/31/2013",1430,14,"SEMI-AUTOMATIC PISTOL","Invest Cont","71ST                         ST","10TH                         AV",-118.328,33.9757
101607937,"03/23/2010",1520,15,"UNKNOWN FIREARM","Invest Cont","7800    TROOST                       AV","",-118.3867,34.213
131209797,"04/01/2013",1810,18,"REVOLVER","Invest Cont","1200 W  65TH                         PL","",-118.2958,33.9799
101608654,"04/05/2010",1850,18,"HAND GUN","Adult Arrest","10000    SAMOA                        AV","",-118.2873,34.2502
131209880,"04/01/2013",1730,17,"UNKNOWN FIREARM","Invest Cont","1500 W  59TH                         PL","",-118.3024,33.9867
101608905,"04/10/2010",2245,22,"UNKNOWN FIREARM","Invest Cont","8700    NORRIS                       AV","",-118.3697,34.2272
101609969,"05/01/2010",2245,22,"UNKNOWN FIREARM","Invest Cont","6800    FOOTHILL                     BL","",-118.2794,34.2476
131210188,"04/06/2013",2235,22,"UNKNOWN FIREARM","Invest Cont","1700 W  49TH                         ST","",-118.3089,33.999
131210270,"04/05/2013",1830,18,"REVOLVER","Invest Cont","200 W  85TH                         ST","",-118.2761,33.9616
131210683,"04/14/2013",1915,19,"UNKNOWN FIREARM","Invest Cont","5000 S  NORMANDIE                    AV","",-118.3002,33.9979
131210884,"04/17/2013",2248,22,"UNKNOWN FIREARM","Invest Cont","10600 S  MANHATTAN                    PL","",-118.31,33.9516
101614965,"07/31/2010",1150,11,"HAND GUN","Invest Cont","9200    TUJUNGA                      AV","",-118.3804,34.2371
131211290,"04/21/2013",1100,11,"UNKNOWN FIREARM","Invest Cont","1000 W  57TH                         ST","",-118.2915,33.9905
101615533,"08/10/2010",2110,21,"UNKNOWN FIREARM","Invest Cont","12500    FILMORE                      ST","",-118.405,34.2839
131211522,"04/26/2013",1340,13,"HAND GUN","Adult Arrest","800 W  85TH                         ST","",-118.2871,33.9613
131211556,"04/27/2013",330,3,"HAND GUN","Invest Cont","1500 W  59TH                         PL","",-118.3024,33.9867
101617159,"09/11/2010",2330,23,"UNKNOWN FIREARM","Invest Cont","12700    BRANFORD                     ST","",-118.4099,34.2433
101617504,"09/10/2010",1235,12,"UNKNOWN FIREARM","Invest Cont","7700    LANKERSHIM                   BL","",-118.3878,34.2103
101618668,"10/11/2010",2310,23,"HAND GUN","Invest Cont","8400    SUNLAND                      BL","",-118.3657,34.2242
101618883,"10/15/2010",2245,22,"HAND GUN","Invest Cont","10600    LAUREL CANYON                BL","",-118.4361,34.2625
131212049,"05/03/2013",120,1,"UNKNOWN FIREARM","Invest Cont","1000 W  57TH                         ST","",-118.2915,33.9905
131212050,"05/03/2013",120,1,"UNKNOWN FIREARM","Invest Cont","1000 W  57TH                         ST","",-118.2915,33.9905
101621065,"12/03/2010",1645,16,"OTHER FIREARM","Adult Arrest","7900    AGNES                        AV","",-118.3954,34.2139
131212499,"05/09/2013",110,1,"HAND GUN","Adult Arrest","700 W  79TH                         ST","",-118.2856,33.9678
101621961,"12/26/2010",1530,15,"AIR PISTOL/REVOLVER/RIFLE/BB GUN","Invest Cont","12300    OSBORNE                      PL","",-118.4013,34.2602
101701019,"06/22/2010",1910,19,"HAND GUN","Invest Cont","9700    SYLVIA                       AV","",-118.5518,34.2475
101704418,"01/08/2010",1825,18,"HAND GUN","Invest Cont","NORDHOFF                     ST","BALBOA                       BL",-118.5025,34.2358
131213216,"05/17/2013",2130,21,"HAND GUN","Invest Cont","65TH","KANSAS",-118.2937,33.9799
101705846,"02/03/2010",2200,22,"HAND GUN","Invest Cont","19100    BRYANT                       ST","",-118.5492,34.2272
131213280,"05/18/2013",2250,22,"UNKNOWN FIREARM","Invest Cont","10000 S  HARVARD                      BL","",-118.3068,33.9455
131213416,"05/21/2013",2115,21,"REVOLVER","Invest Cont","6500 S  VICTORIA                     AV","",-118.3323,33.9806
101707593,"03/05/2010",2130,21,"HAND GUN","Invest Cont","19000    BRYANT                       ST","",-118.5471,34.2272
131213963,"05/29/2013",1950,19,"HAND GUN","Invest Cont","900 E  84TH                         PL","",-118.2586,33.962
131213994,"05/30/2013",1335,13,"SEMI-AUTOMATIC PISTOL","Invest Cont","BUDLONG                      AV","48TH                         ST",-118.2959,33.9996
131214183,"05/31/2013",2330,23,"UNKNOWN FIREARM","Invest Cont","4500 S  SAINT ANDREWS                PL","",-118.3113,34.0028
131214842,"06/10/2013",2200,22,"UNKNOWN FIREARM","Invest Cont","1900 W  76TH                         ST","",-118.3112,33.9709
101715159,"07/24/2010",2330,23,"OTHER FIREARM","Invest Cont","17500    DEVONSHIRE                   ST","",-118.5154,34.2576
131215263,"06/16/2013",2255,22,"UNKNOWN FIREARM","Invest Cont","900 W  64TH                         ST","",-118.2892,33.981
131215790,"06/22/2013",2230,22,"UNKNOWN FIREARM","Invest Cont","8000 S  MAIN                         ST","",-118.2739,33.9669
131216359,"06/29/2013",1630,16,"STRONG-ARM (HANDS, FIST, FEET OR BODILY FORCE)","Invest Cont","5600    RUTHELEN                     ST","",-118.3126,33.9911
131216463,"07/04/2013",130,1,"UNKNOWN FIREARM","Invest Cont","2300 W  75TH                         ST","",-118.3188,33.9719
131216554,"07/04/2013",1535,15,"SEMI-AUTOMATIC PISTOL","Adult Arrest","1100 W  85TH                         ST","",-118.294,33.961
101800703,"03/13/2010",2330,23,"HAND GUN","Invest Cont","1500 E  109TH                        ST","",-118.2482,33.9368
101800765,"04/03/2010",2038,20,"UNKNOWN FIREARM","Invest Cont","100 W  105TH                        ST","",-118.2739,33.9411
131216876,"07/10/2013",235,2,"HAND GUN","Invest Cont","500 W  82ND                         ST","",-118.2827,33.9644
101800998,"06/12/2010",1400,14,"HAND GUN","Invest Cont","800 E  89TH                         ST","",-118.2608,33.9556
101801132,"07/15/2010",2240,22,"UNKNOWN FIREARM","Invest Cont","100 E  87TH                         ST","",-118.2739,33.9591
101801243,"08/23/2010",2125,21,"UNKNOWN FIREARM","Invest Cont","10700 S  VERMONT                      AV","",-118.2916,33.9391
101801269,"09/03/2010",1345,13,"UNKNOWN FIREARM","Invest Cont","700    CALIBURN                     DR","",-118.2629,33.9573
101801396,"10/11/2010",1930,19,"STRONG-ARM (HANDS, FIST, FEET OR BODILY FORCE)","Invest Cont","900 E  118TH                        DR","",-118.2586,33.9253
101801562,"12/02/2010",1500,15,"AIR PISTOL/REVOLVER/RIFLE/BB GUN","Invest Cont","10500    AVALON                       BL","",-118.2652,33.941
101801573,"12/04/2010",2200,22,"SEMI-AUTOMATIC PISTOL","Invest Cont","9300    CLOVIS                       AV","",-118.2564,33.9521
101804114,"01/02/2010",2320,23,"UNKNOWN FIREARM","Invest Cont","800 E  88TH                         ST","",-118.2608,33.9574
101804138,"01/03/2010",1615,16,"HAND GUN","Adult Other","11300    MONITOR                      AV","",-118.2402,33.9321
101804304,"01/05/2010",1540,15,"HAND GUN","Invest Cont","800 E  120TH                        ST","",-118.2614,33.9237
101804336,"01/04/2010",2145,21,"UNKNOWN FIREARM","Invest Cont","200 W  90TH                         ST","",-118.2761,33.9546
101804436,"01/06/2010",2200,22,"UNKNOWN FIREARM","Invest Cont","1500 E  115TH                        ST","",-118.2487,33.9303
131217261,"07/15/2013",2245,22,"UNKNOWN FIREARM","Invest Cont","1700 W  45TH                         ST","",-118.3089,34.0028
101805425,"01/25/2010",2350,23,"UNKNOWN WEAPON/OTHER WEAPON","Invest Cont","9300    MAIE                         AV","",-118.2446,33.9524
101805827,"02/01/2010",2200,22,"UNKNOWN FIREARM","Invest Cont","500 W  103RD                        ST","",-118.2826,33.9431
101807219,"02/27/2010",2200,22,"HAND GUN","Invest Cont","8800 S  BROADWAY","",-118.2782,33.9572
101807684,"03/07/2010",1450,14,"HAND GUN","Invest Cont","CENTURY","BROADWAY",-118.2781,33.9456
101808366,"03/18/2010",2150,21,"UNKNOWN FIREARM","Invest Cont","600 W  92ND                         ST","",-118.2848,33.9528
101808587,"03/21/2010",1400,14,"OTHER FIREARM","Invest Cont","900 E  113TH                        ST","",-118.2586,33.9319
101809013,"03/27/2010",2230,22,"SEMI-AUTOMATIC PISTOL","Invest Cont","1600 E  114TH                        ST","",-118.2463,33.9311
131217968,"07/27/2013",2145,21,"HAND GUN","Invest Cont","6400    8TH                          AV","",-118.3265,33.9818
131217978,"07/27/2013",300,3,"UNKNOWN FIREARM","Invest Cont","7000    HAAS                         AV","",-118.3168,33.9764
101809813,"04/09/2010",1950,19,"HAND GUN","Invest Cont","109TH                        ST","MAIN                         ST",-118.2739,33.9374
101810009,"04/13/2010",2130,21,"UNKNOWN FIREARM","Invest Cont","11200 S  GRAND                        AV","",-118.2805,33.9379
101810119,"04/15/2010",1950,19,"UNKNOWN FIREARM","Invest Cont","300 E  115TH                        ST","",-118.2695,33.9301
101810157,"04/16/2010",1130,11,"SEMI-AUTOMATIC PISTOL","Invest Cont","88TH                         ST","MCKINLEY",-118.2608,33.9574
101810703,"04/24/2010",2230,22,"UNKNOWN FIREARM","Invest Cont","800 E  99TH                         ST","",-118.2608,33.9465
101810739,"04/25/2010",1925,19,"OTHER FIREARM","Invest Cont","10400    AVALON                       BL","",-118.2652,33.9419
101810849,"04/27/2010",2010,20,"STRONG-ARM (HANDS, FIST, FEET OR BODILY FORCE)","Adult Arrest","108TH                        ST","BROADWAY",-118.2781,33.9383
101811158,"04/30/2010",2215,22,"REVOLVER","Adult Other","107TH                        ST","COMPTON                      AV",-118.2462,33.9389
101811237,"05/03/2010",1010,10,"SHOTGUN","Invest Cont","100 W  105TH                        ST","",-118.2739,33.9411
101812040,"05/16/2010",1630,16,"STRONG-ARM (HANDS, FIST, FEET OR BODILY FORCE)","Invest Cont","900 E  112TH                        ST","",-118.2586,33.9328
101812130,"05/18/2010",1230,12,"SEMI-AUTOMATIC PISTOL","Invest Cont","2100 E  110TH                        ST","",-118.2349,33.9351
101812173,"05/18/2010",2210,22,"UNKNOWN FIREARM","Invest Cont","10900    ANZAC                        AV","",-118.2379,33.9362
131218513,"08/04/2013",2025,20,"UNKNOWN FIREARM","Invest Cont","3200 W  FLORENCE                     AV","",-118.3285,33.9746
131218534,"08/04/2013",1545,15,"UNKNOWN FIREARM","Invest Cont","66TH                         ST","11TH                         AV",-118.3294,33.9797
101812565,"05/25/2010",1845,18,"HAND GUN","Adult Other","114TH","GRAPE                        ST",-118.2363,33.9315
101812605,"05/26/2010",1525,15,"HAND GUN","Invest Cont","1800 E  109TH                        ST","",-118.2405,33.9371
101812606,"05/26/2010",1525,15,"HAND GUN","Invest Cont","1800 E  109TH                        ST","",-118.2405,33.9371
131218622,"08/06/2013",2030,20,"SEMI-AUTOMATIC PISTOL","Invest Cont","800 W  80TH                         ST","",-118.2871,33.9667
131218675,"08/07/2013",2310,23,"HAND GUN","Invest Cont","2000 W  65TH                         ST","",-118.3133,33.9806
101813426,"06/10/2010",1230,12,"RIFLE","Invest Cont","100 E  87TH                         PL","",-118.2739,33.9581
101813592,"06/11/2010",2130,21,"UNKNOWN FIREARM","Invest Cont","900 E  88TH                         PL","",-118.2586,33.9565
101813816,"06/17/2010",1540,15,"SHOTGUN","Invest Cont","10500    KALMIA                       ST","",-118.2317,33.9406
131218857,"08/10/2013",745,7,"SEMI-AUTOMATIC PISTOL","Invest Cont","84TH                         ST","WALL                         ST",-118.2717,33.9629
101814222,"06/24/2010",1945,19,"UNKNOWN FIREARM","Invest Cont","91ST                         ST","AVALON                       BL",-118.2651,33.9538
101814538,"06/30/2010",1520,15,"UNKNOWN FIREARM","Invest Cont","9800    BANDERA                      ST","",-118.2396,33.9473
101814976,"07/07/2010",1845,18,"REVOLVER","Adult Arrest","600    CAMELOT                      WY","",-118.2651,33.9578
131219175,"08/15/2013",1700,17,"HAND GUN","Invest Cont","59TH                         ST","RAYMOND                      AV",-118.298,33.9875
131219417,"08/19/2013",1845,18,"UNKNOWN FIREARM","Invest Cont","1200 W  GAGE                         AV","",-118.2958,33.9824
101817097,"08/13/2010",1920,19,"SEMI-AUTOMATIC PISTOL","Invest Cont","MAIN                         ST","107TH                        ST",-118.2739,33.9393
101817242,"08/16/2010",2230,22,"HAND GUN","Invest Cont","11100    BELHAVEN                     ST","",-118.2555,33.9351
131219516,"08/20/2013",1630,16,"HAND GUN","Invest Cont","6400 S  VICTORIA                     AV","",-118.3323,33.9817
131219517,"08/20/2013",1630,16,"HAND GUN","Invest Cont","6400 S  VICTORIA                     AV","",-118.3323,33.9817
101817547,"08/22/2010",2255,22,"UNKNOWN FIREARM","Invest Cont","600 E  115TH                        ST","",-118.2652,33.9301
131219598,"08/21/2013",2345,23,"HAND GUN","Invest Cont","100 E  76TH                         ST","",-118.2739,33.9713
101818273,"09/03/2010",2050,20,"OTHER FIREARM","Invest Cont","106TH                        ST","CLOVIS",-118.2565,33.9401
131219728,"08/23/2013",1555,15,"SHOTGUN","Invest Cont","900 W  GAGE                         AV","",-118.2892,33.9819
101819573,"09/27/2010",1200,12,"UNKNOWN FIREARM","Invest Cont","114TH                        ST","GORMAN",-118.232,33.9315
101819703,"09/28/2010",2030,20,"HAND GUN","Invest Cont","11500    CROESUS                      AV","",-118.2335,33.9306
101819766,"09/29/2010",2230,22,"UNKNOWN FIREARM","Invest Cont","100 E  87TH                         PL","",-118.2739,33.9581
131219983,"08/27/2013",1710,17,"HAND GUN","Invest Cont","65TH                         ST","BUDLONG                      AV",-118.2958,33.9805
131220074,"08/28/2013",2013,20,"HAND GUN","Invest Cont","1700 W  80TH                         ST","",-118.3068,33.9664
131220177,"08/29/2013",2100,21,"HAND GUN","Invest Cont","10000    LA SALLE                     AV","",-118.3057,33.9455
131220284,"09/01/2013",300,3,"UNKNOWN FIREARM","Invest Cont","5000 S  WESTERN                      AV","",-118.3089,33.998
101821219,"10/23/2010",1730,17,"SEMI-AUTOMATIC PISTOL","Invest Cont","10200 S  FIGUEROA                     ST","",-118.2826,33.9438
101821266,"10/24/2010",2330,23,"HAND GUN","Invest Cont","1900 E  113TH                        ST","",-118.239,33.9325
101821305,"10/25/2010",2245,22,"HAND GUN","Invest Cont","2200 E  111TH                        ST","",-118.2335,33.9343
131220335,"09/01/2013",2155,21,"HAND GUN","Invest Cont","81ST                         ST","AVALON                       BL",-118.2651,33.9656
131220369,"09/02/2013",1515,15,"HAND GUN","Invest Cont","1500 W  62ND                         ST","",-118.3024,33.9833
101821681,"10/30/2010",1100,11,"UNKNOWN FIREARM","Invest Cont","10300    ANZAC                        AV","",-118.2379,33.9432
101822422,"11/13/2010",2255,22,"AUTOMATIC WEAPON/SUB-MACHINE GUN","Invest Cont","300 E  111TH                        ST","",-118.2695,33.9348
101822459,"11/14/2010",2020,20,"STRONG-ARM (HANDS, FIST, FEET OR BODILY FORCE)","Invest Cont","2200 E  111TH                        ST","",-118.2335,33.9343
101822844,"11/20/2010",1038,10,"UNKNOWN FIREARM","Invest Cont","2100 E  114TH                        ST","",-118.2349,33.9315
131220726,"09/08/2013",430,4,"HAND GUN","Invest Cont","800 W  84TH                         ST","",-118.2871,33.9625
131220797,"09/09/2013",2245,22,"UNKNOWN FIREARM","Invest Cont","1100 W  45TH                         ST","",-118.2937,34.0027
101824663,"12/19/2010",2210,22,"HAND GUN","Invest Cont","500 E  111TH                        PL","",-118.2662,33.9339
101900561,"01/23/2010",1330,13,"HAND GUN","Invest Cont","HUBBARD","JACKMAN",-118.4528,34.2879
101900723,"03/13/2010",1735,17,"UNKNOWN FIREARM","Invest Cont","SHARP","MONTAGUE",-118.4196,34.2415
101900991,"06/25/2010",2320,23,"HAND GUN","Invest Cont","RAYEN","COLUMBUS",-118.4654,34.2319
101901043,"07/06/2010",2350,23,"HAND GUN","Invest Cont","SYLMAR                       AV","TUPPER                       ST",-118.4462,34.239
101901230,"08/27/2010",1900,19,"SEMI-AUTOMATIC PISTOL","Invest Cont","15000    POLK                         ST","",-118.4592,34.2992
101901300,"09/18/2010",2340,23,"HAND GUN","Invest Cont","9000    TOBIAS                       AV","",-118.4517,34.2336
101901522,"12/11/2010",1620,16,"HAND GUN","Invest Cont","8400    COLUMBUS                     AV","",-118.4655,34.2231
131221183,"09/05/2013",1630,16,"UNKNOWN FIREARM","Adult Other","1200 W  65TH                         ST","",-118.2958,33.9806
131221291,"09/17/2013",1640,16,"HAND GUN","Invest Cont","60TH","VERMONT",-118.2915,33.9855
101905386,"01/23/2010",2235,22,"HAND GUN","Invest Cont","14900    BLEDSOE                      ST","",-118.4572,34.3126
131221419,"09/18/2013",2230,22,"REVOLVER","Invest Cont","6200    CIMARRON                     ST","",-118.3158,33.9834
131221446,"09/19/2013",2350,23,"UNKNOWN FIREARM","Invest Cont","HALLDALE                     AV","62ND                         ST",-118.3024,33.9833
101906406,"02/05/2010",2230,22,"SEMI-AUTOMATIC PISTOL","Invest Cont","13300    HUBBARD                      ST","",-118.4229,34.3141
101907210,"02/20/2010",2035,20,"UNKNOWN FIREARM","Invest Cont","HAZELTINE","ROSCOE",-118.4404,34.2216
101907267,"02/17/2010",1530,15,"OTHER FIREARM","Invest Cont","8600    VAN NUYS                     BL","",-118.4494,34.2258
131221746,"09/17/2013",1425,14,"SHOTGUN","Invest Cont","50TH                         ST","BUDLONG                      AV",-118.2959,33.9978
101907866,"03/02/2010",1300,13,"UNKNOWN FIREARM","Invest Cont","13100    DRONFIELD                    AV","",-118.4386,34.3089
131222047,"09/28/2013",2225,22,"UNKNOWN FIREARM","Invest Cont","700 W  50TH                         ST","",-118.2856,33.9974
101910116,"04/01/2010",1710,17,"HAND GUN","Invest Cont","15000    RINALDI                      ST","",-118.4589,34.279
101910205,"04/02/2010",2330,23,"UNKNOWN FIREARM","Invest Cont","13300    DYER                         ST","",-118.4221,34.3234
131222214,"09/29/2013",2030,20,"HAND GUN","Invest Cont","100 W  73RD                         ST","",-118.2739,33.9737
131222316,"10/02/2013",2135,21,"UNKNOWN FIREARM","Invest Cont","84TH                         ST","MAIN                         ST",-118.2739,33.9633
131222486,"10/04/2013",2100,21,"UNKNOWN FIREARM","Invest Cont","5600    RUTHELEN                     ST","",-118.3126,33.9911
101912456,"05/05/2010",2310,23,"UNKNOWN FIREARM","Invest Cont","8600    WILLIS                       AV","",-118.4553,34.2265
101913094,"05/14/2010",1450,14,"UNKNOWN FIREARM","Invest Cont","12700    ARROYO                       ST","",-118.4088,34.2962
131222677,"10/08/2013",1735,17,"REVOLVER","Invest Cont","67TH","BRYNHURST",-118.3338,33.9781
101914319,"05/31/2010",1955,19,"HAND GUN","Invest Cont","14100    TERRA BELLA                  ST","",-118.44,34.2425
101914378,"05/29/2010",2340,23,"UNKNOWN FIREARM","Invest Cont","9700    MERCEDES                     AV","",-118.4357,34.2468
101914468,"02/07/2010",2100,21,"HAND GUN","Invest Cont","8000    BROADLEAF                    AV","",-118.4381,34.2164
101915831,"06/21/2010",1545,15,"UNKNOWN FIREARM","Invest Cont","13100    BROMONT                      AV","",-118.4365,34.3097
101915948,"06/23/2010",1300,13,"HAND GUN","Invest Cont","GLENHILL","SYLMAR",-118.4464,34.2386
101917517,"07/15/2010",1200,12,"HAND GUN","Invest Cont","7800    WOODMAN                      AV","",-118.4309,34.2124
131223376,"10/18/2013",1020,10,"UNKNOWN FIREARM","Invest Cont","85TH                         ST","MCKINLEY                     AV",-118.2608,33.9611
101918299,"07/31/2010",2200,22,"UNKNOWN FIREARM","Invest Cont","14300    FOOTHILL                     BL","",-118.4455,34.3192
101919444,"08/19/2010",1700,17,"UNKNOWN FIREARM","Invest Cont","9500    VAN NUYS                     BL","",-118.4502,34.2427
101919610,"08/21/2010",2330,23,"UNKNOWN FIREARM","Invest Cont","COMETA                       AV","HARDING                      AV",-118.4259,34.2994
131223702,"10/23/2013",1425,14,"SHOTGUN","Adult Arrest","7800 S  NORMANDIE                    AV","",-118.3003,33.9692
101921161,"09/15/2010",2125,21,"HAND GUN","Invest Cont","14100    PADDOCK                      ST","",-118.4411,34.3132
101921167,"08/25/2010",1330,13,"HAND GUN","Invest Cont","ROSCOE","SHELDON",-118.4144,34.2217
101922699,"10/11/2010",1600,16,"HAND GUN","Invest Cont","ROXFORD","SAN FERNANDO",-118.4732,34.31
101922874,"10/11/2010",1600,16,"UNKNOWN FIREARM","Invest Cont","15500    ROXFORD                      ST","",-118.4697,34.3131
101923368,"10/20/2010",1800,18,"UNKNOWN FIREARM","Invest Cont","9000    BURNET                       AV","",-118.4632,34.2337
101923826,"10/28/2010",1105,11,"HAND GUN","Invest Cont","9000    BURNET                       AV","",-118.4632,34.2337
101925421,"11/22/2010",2345,23,"HAND GUN","Invest Cont","14600    BLYTHE                       ST","",-118.451,34.2152
131224981,"11/14/2013",25,0,"UNKNOWN FIREARM","Invest Cont","900 E  80TH                         ST","",-118.2586,33.9665
131226615,"12/10/2013",1335,13,"HAND GUN","Invest Cont","WESTERN","SLAUSON",-118.3089,33.9892
131227329,"12/21/2013",615,6,"HAND GUN","Invest Cont","8200 S  FIGUEROA                     ST","",-118.2827,33.9646
102113357,"06/25/2010",2355,23,"HAND GUN","Invest Cont","SHERMAN","GLADE",-118.6081,34.201
131227425,"12/23/2013",2300,23,"SEMI-AUTOMATIC PISTOL","Invest Cont","5000 S  NORMANDIE                    AV","",-118.3002,33.9979
131227536,"12/25/2013",545,5,"UNKNOWN FIREARM","Invest Cont","800 E  76TH                         PL","",-118.2608,33.9703
131300664,"05/13/2013",55,0,"UNKNOWN FIREARM","Invest Cont","300 W  GAGE                         AV","",-118.2783,33.9824
131300708,"06/14/2013",2140,21,"UNKNOWN FIREARM","Invest Cont","3800 S  BROADWAY","",-118.277,34.0141
131300730,"07/01/2013",340,3,"HAND GUN","Adult Arrest","1300 E  58TH                         ST","",-118.2521,33.9902
131300779,"07/28/2013",130,1,"HAND GUN","Invest Cont","BROADWAY","38TH                         ST",-118.2758,34.0136
131300972,"12/05/2013",1930,19,"REVOLVER","Adult Arrest","1200 E  ADAMS                        BL","",-118.2525,34.0177
102100613,"04/21/2010",2000,20,"HAND GUN","Invest Cont","4500    DON PIO                      DR","",-118.602,34.1499
102100764,"06/26/2010",1930,19,"HAND GUN","Invest Cont","20200    SHERMAN                      WY","",-118.5732,34.2012
131305059,"01/20/2013",45,0,"HAND GUN","Invest Cont","1100 E  41ST                         PL","",-118.2565,34.0084
131305834,"02/03/2013",2130,21,"HAND GUN","Invest Cont","100 E  36TH                         ST","",-118.2736,34.0171
131305914,"01/06/2013",200,2,"UNKNOWN FIREARM","Invest Cont","MCGARRY                      ST","OLYMPIC                      BL",-118.2404,34.0289
131306279,"02/13/2013",2150,21,"REVOLVER","Invest Cont","2100    7TH                          PL","",-118.23,34.0336
131307286,"03/03/2013",2020,20,"HAND GUN","Invest Cont","MCKINLEY","MARTIN LUTHER KING JR",-118.2608,34.011
131307899,"03/14/2013",2305,23,"ASSAULT WEAPON/UZI/AK47/ETC","Invest Cont","52ND                         ST","DUARTE",-118.2423,33.9955
131309675,"04/16/2013",1340,13,"HAND GUN","Adult Arrest","1600 E  47TH                         ST","",-118.2459,34.001
131310282,"04/26/2013",2315,23,"SEMI-AUTOMATIC PISTOL","Invest Cont","4200    WALL                         ST","",-118.2716,34.0073
131310710,"05/03/2013",2105,21,"UNKNOWN FIREARM","Invest Cont","6700 S  SAN PEDRO                    ST","",-118.2695,33.9788
131311930,"05/25/2013",2130,21,"REVOLVER","Adult Arrest","300 W  46TH                         ST","",-118.2783,34.002
131312268,"06/01/2013",2255,22,"SEMI-AUTOMATIC PISTOL","Invest Cont","600 E  43RD                         ST","",-118.2652,34.0057
131312269,"06/01/2013",2255,22,"SEMI-AUTOMATIC PISTOL","Invest Cont","600 E  43RD                         ST","",-118.2652,34.0057
131312274,"06/01/2013",225,2,"HAND GUN","Invest Cont","4500    WALL                         ST","",-118.2718,34.0029
131313182,"06/18/2013",2250,22,"SEMI-AUTOMATIC PISTOL","Invest Cont","3600 S  SAN PEDRO                    ST","",-118.2664,34.0137
131313183,"06/18/2013",2250,22,"SEMI-AUTOMATIC PISTOL","Invest Cont","3600 S  SAN PEDRO                    ST","",-118.2664,34.0137
131313803,"06/29/2013",2355,23,"UNKNOWN FIREARM","Invest Cont","2200 S  SAN PEDRO                    ST","",-118.2592,34.0249
131313805,"06/30/2013",1,0,"HAND GUN","Invest Cont","700 E  55TH                         ST","",-118.263,33.9925
131314185,"07/04/2013",1815,18,"UNKNOWN FIREARM","Invest Cont","4800 S  SAN PEDRO                    ST","",-118.2696,33.9994
111104170,"12/17/2010",2300,23,"UNKNOWN FIREARM","Invest Cont","900    CYPRESS                      AV","",-118.2248,34.0927
131314742,"07/16/2013",1015,10,"UNKNOWN FIREARM","Invest Cont","1400 E  53RD                         ST","",-118.2499,33.9948
111200579,"01/30/2010",2135,21,"UNKNOWN FIREARM","Invest Cont","7800 S  NORMANDIE                    AV","",-118.3003,33.9692
111304002,"12/31/2010",2240,22,"HAND GUN","Invest Cont","700 E  42ND                         ST","",-118.2635,34.0076
131316406,"08/14/2013",1615,16,"HAND GUN","Invest Cont","51ST                         ST","BROADWAY",-118.2783,33.9965
131316973,"08/24/2013",1735,17,"REVOLVER","Invest Cont","25TH                         ST","TRINITY                      ST",-118.2626,34.0235
131318060,"09/12/2013",2115,21,"SEMI-AUTOMATIC PISTOL","Invest Cont","41ST                         ST","COMPTON                      AV",-118.2506,34.0091
131318165,"09/14/2013",2040,20,"UNKNOWN FIREARM","Adult Arrest","1500 E  41ST                         ST","",-118.2474,34.0086
131319026,"09/30/2013",2140,21,"HAND GUN","Invest Cont","100 E  41ST                         PL","",-118.274,34.0082
131319371,"10/07/2013",215,2,"HAND GUN","Invest Cont","1500 E  41ST                         ST","",-118.2474,34.0086
131320527,"10/26/2013",2140,21,"HAND GUN","Invest Cont","400 E  20TH                         ST","",-118.2622,34.0286
100100759,"03/28/2010",55,0,"HAND GUN","Invest Cont","500 E  4TH                          ST","",-118.2415,34.0449
100101304,"07/31/2010",1200,12,"UNKNOWN FIREARM","Invest Cont","400 S  FIGUEROA                     ST","",-118.256,34.0535
100108682,"04/01/2010",5,0,"SEMI-AUTOMATIC PISTOL","Invest Cont","600 S  MAIN                         ST","",-118.2499,34.0453
100111074,"05/18/2010",2200,22,"HAND GUN","Invest Cont","100 S  LOS ANGELES                  ST","",-118.2424,34.0515
100111152,"05/19/2010",2235,22,"HAND GUN","Invest Cont","700    MAIN                         ST","",-118.2514,34.0439
100111600,"05/28/2010",1015,10,"UNKNOWN FIREARM","Invest Cont","BROADWAY","TEMPLE",-118.2436,34.0557
100200573,"03/23/2010",2030,20,"HAND GUN","Invest Cont","1300    TOBERMAN                     ST","",-118.2758,34.0442
100200643,"06/18/2010",1235,12,"UNKNOWN FIREARM","Invest Cont","TOLUCA                       ST","COURT                        ST",-118.2569,34.0642
100200646,"06/21/2010",1230,12,"HAND GUN","Invest Cont","1300    TOBERMAN                     ST","",-118.2758,34.0442
100200653,"07/04/2010",25,0,"HAND GUN","Invest Cont","MELROSE                      BL","HOOVER                       ST",-118.2845,34.0838
100205155,"01/22/2010",2030,20,"HAND GUN","Invest Cont","200 N  ALVARADO                     ST","",-118.2695,34.068
100204804,"01/15/2010",2330,23,"UNKNOWN FIREARM","Invest Cont","600 S  BONNIE BRAE                  ST","",-118.2725,34.0585
100204923,"01/18/2010",1700,17,"OTHER FIREARM","Invest Cont","MELROSE                      AV","HELIOTROPE                   DR",-118.295,34.0836
100205026,"01/20/2010",700,7,"HAND GUN","Invest Cont","4000    CLINTON                      ST","",-118.2892,34.0818
100205914,"02/05/2010",1600,16,"SEMI-AUTOMATIC PISTOL","Invest Cont","4TH                          ST","HARTFORD",-118.2626,34.0576
100206265,"02/10/2010",1630,16,"UNKNOWN FIREARM","Invest Cont","1400    TOBERMAN                     ST","",-118.2771,34.0423
100206755,"02/20/2010",110,1,"UNKNOWN FIREARM","Invest Cont","400    WITMER                       ST","",-118.2644,34.0576
100206778,"02/20/2010",110,1,"UNKNOWN FIREARM","Invest Cont","400    WITMER                       ST","",-118.2644,34.0576
100206781,"02/20/2010",1830,18,"UNKNOWN FIREARM","Invest Cont","17TH                         ST","TOBERMAN                     ST",-118.278,34.0398
100207170,"02/21/2010",2130,21,"STRONG-ARM (HANDS, FIST, FEET OR BODILY FORCE)","Invest Cont","MARATHON                     AV","LUCILLE                      AV",-118.2812,34.0857
100207564,"03/05/2010",2150,21,"UNKNOWN FIREARM","Invest Cont","7TH","VALENCIA",-118.2694,34.0531
100207637,"03/07/2010",430,4,"HAND GUN","Invest Cont","1000 N  NEW HAMPSHIRE                AV","",-118.2928,34.0895
100207638,"03/07/2010",430,4,"HAND GUN","Invest Cont","1000 N  NEW HAMPSHIRE                AV","",-118.2928,34.0895
100207753,"03/09/2010",2010,20,"UNKNOWN FIREARM","Invest Cont","4TH                          ST","CORONADO                     ST",-118.2797,34.0649
100207969,"03/12/2010",1200,12,"HAND GUN","Invest Cont","14TH                         ST","TOBERMAN",-118.2779,34.043
100208289,"03/14/2010",800,8,"UNKNOWN FIREARM","Invest Cont","1500 W  PICO                         BL","",-118.2752,34.0439
100208834,"03/27/2010",2000,20,"UNKNOWN FIREARM","Invest Cont","800    LAVETTA                      TR","",-118.2578,34.0726
100209224,"04/03/2010",2258,22,"HAND GUN","Invest Cont","GARLAND                      AV","8TH                          ST",-118.2677,34.0496
100209262,"04/03/2010",1600,16,"UNKNOWN FIREARM","Invest Cont","1600    OAK                          ST","",-118.2755,34.0399
100209301,"04/02/2010",2100,21,"UNKNOWN FIREARM","Invest Cont","1300 S  BURLINGTON                   AV","",-118.2789,34.0456
100209599,"04/10/2010",1340,13,"SEMI-AUTOMATIC PISTOL","Invest Cont","BURLINGTON","17TH                         ST",-118.2815,34.0413
100209887,"04/15/2010",2245,22,"UNKNOWN FIREARM","Invest Cont","700 S  WESTLAKE                     AV","",-118.2756,34.0559
100210313,"04/22/2010",2220,22,"ASSAULT WEAPON/UZI/AK47/ETC","Invest Cont","1200 W  8TH                          ST","",-118.2677,34.0496
100210412,"04/25/2010",300,3,"HAND GUN","Invest Cont","1600    OAK                          ST","",-118.2755,34.0399
100210417,"04/25/2010",135,1,"UNKNOWN FIREARM","Invest Cont","7TH                          ST","VALENCIA                     ST",-118.2694,34.0531
100210930,"05/05/2010",110,1,"SEMI-AUTOMATIC PISTOL","Invest Cont","BELLEVUE                     BL","IMOGEN                       AV",-118.2843,34.0806
100211893,"05/23/2010",1635,16,"RIFLE","Adult Arrest","1300    MICHELTORENA                 ST","",-118.2772,34.0854
100212987,"06/12/2010",2215,22,"UNKNOWN FIREARM","Invest Cont","WESTLAKE                     AV","PICO                         BL",-118.2835,34.046
100213417,"06/20/2010",1200,12,"UNKNOWN FIREARM","Invest Cont","14TH                         ST","TOBERMAN                     ST",-118.2779,34.043
100213418,"06/20/2010",400,4,"UNKNOWN FIREARM","Invest Cont","3100    BEVERLY                      BL","",-118.2822,34.0719
100214105,"07/04/2010",45,0,"HAND GUN","Invest Cont","1500 W  6TH                          ST","",-118.2681,34.0566
100214124,"07/04/2010",1530,15,"SEMI-AUTOMATIC PISTOL","Invest Cont","100 S  BURLINGTON                   AV","",-118.2666,34.065
100214177,"07/05/2010",1345,13,"RIFLE","Adult Arrest","4300    NORMAL                       AV","",-118.2892,34.0867
100214966,"07/21/2010",2125,21,"UNKNOWN FIREARM","Invest Cont","200 N  ALVARADO                     ST","",-118.2695,34.068
100215538,"07/31/2010",2120,21,"UNKNOWN FIREARM","Invest Cont","700    GARLAND                      AV","",-118.2663,34.0517
100219728,"10/23/2010",155,1,"HAND GUN","Invest Cont","300 S  BOYLSTON                     ST","",-118.2578,34.0568
100221190,"11/19/2010",1815,18,"HAND GUN","Adult Arrest","ALEXANDRIA","CLINTON                      AV",-118.2981,34.0813
100221865,"12/04/2010",245,2,"UNKNOWN FIREARM","Invest Cont","4300    CLINTON                      ST","",-118.2966,34.0813
100221872,"12/04/2010",200,2,"UNKNOWN FIREARM","Invest Cont","4300    CLINTON                      ST","",-118.2966,34.0813
100222234,"12/11/2010",1645,16,"HAND GUN","Invest Cont","1200 W  TEMPLE                       ST","",-118.2527,34.0648
100222927,"12/27/2010",1805,18,"UNKNOWN FIREARM","Invest Cont","1500 W  PICO                         BL","",-118.2752,34.0439
100300550,"01/14/2010",1600,16,"UNKNOWN FIREARM","Invest Cont","3500    POTOMAC                      AV","",-118.3442,34.0237
100300721,"02/28/2010",5,0,"SEMI-AUTOMATIC PISTOL","Invest Cont","SANTA ROSALIA                DR","POTOMAC                      AV",-118.3472,34.0151
100300977,"04/29/2010",1830,18,"HAND GUN","Invest Cont","1500 W  36TH                         PL","",-118.3031,34.0219
100301115,"05/26/2010",550,5,"UNKNOWN FIREARM","Invest Cont","4000    NICOLET                      AV","",-118.3512,34.0146
100301512,"09/04/2010",2310,23,"HAND GUN","Invest Cont","JEFFERSON                    BL","7TH                          AV",-118.3248,34.0256
100301675,"10/16/2010",2030,20,"HAND GUN","Invest Cont","1800 W  39TH                         ST","",-118.3132,34.0147
100301691,"10/20/2010",1505,15,"UNKNOWN FIREARM","Invest Cont","4000    URSULA                       AV","",-118.3524,34.0149
100301732,"10/30/2010",50,0,"UNKNOWN FIREARM","Invest Cont","4500    RODEO                        LN","",-118.3452,34.0203
100301871,"12/24/2010",2230,22,"OTHER FIREARM","Invest Cont","1400 W  42ND                         PL","",-118.3002,34.0061
100304741,"01/12/2010",1520,15,"HAND GUN","Invest Cont","3700 W  27TH                         ST","",-118.3251,34.0312
100304909,"01/14/2010",1550,15,"UNKNOWN FIREARM","Invest Cont","COLISEUM","POTOMAC",-118.3442,34.0183
100304971,"01/16/2010",2230,22,"OTHER FIREARM","Invest Cont","1300 W  36TH                         ST","",-118.2974,34.0229
100305615,"01/27/2010",1015,10,"SEMI-AUTOMATIC PISTOL","Invest Cont","1000 W  38TH                         ST","",-118.2915,34.0168
100305777,"01/30/2010",340,3,"SEMI-AUTOMATIC PISTOL","Adult Other","4100    5TH                          AV","",-118.3222,34.0108
100305778,"01/30/2010",340,3,"SEMI-AUTOMATIC PISTOL","Adult Other","4100    5TH                          AV","",-118.3222,34.0108
100305950,"02/01/2010",420,4,"SHOTGUN","Invest Cont","3900    HILLCREST                    DR","",-118.3441,34.0163
100308371,"03/06/2010",1340,13,"UNKNOWN FIREARM","Invest Cont","STOCKER                      ST","VICTORIA                     AV",-118.3363,34.008
100308966,"03/15/2010",1655,16,"OTHER FIREARM","Adult Other","4800 W  MARTIN LUTHER KING JR        BL","",-118.3495,34.0197
100309036,"03/16/2010",2135,21,"UNKNOWN FIREARM","Invest Cont","5000    RODEO                        RD","",-118.3524,34.0215
100309084,"03/16/2010",1200,12,"UNKNOWN FIREARM","Invest Cont","4300    CRENSHAW                     BL","",-118.3338,34.0054
100309272,"03/19/2010",1715,17,"HAND GUN","Invest Cont","4000    CRENSHAW                     BL","",-118.3323,34.0039
100309711,"03/26/2010",1730,17,"REVOLVER","Invest Cont","800 W  43RD                         ST","",-118.2872,34.0055
100309918,"03/30/2010",230,2,"OTHER FIREARM","Invest Cont","3900    ARLINGTON                    AV","",-118.3182,34.0146
100310151,"04/02/2010",545,5,"SEMI-AUTOMATIC PISTOL","Adult Arrest","1500 W  37TH                         PL","",-118.3029,34.02
100311647,"04/22/2010",1000,10,"SEMI-AUTOMATIC PISTOL","Invest Cont","MC CLUNG                     DR","STOCKER",-118.3341,34.0085
100311669,"04/22/2010",1915,19,"UNKNOWN WEAPON/OTHER WEAPON","Adult Other","2700 W  JEFFERSON                    BL","",-118.3248,34.0256
100311798,"04/24/2010",1200,12,"REVOLVER","Invest Cont","2700    ORCHARD                      AV","",-118.2874,34.0303
100312132,"04/29/2010",1805,18,"HAND GUN","Invest Cont","3000    9TH                          AV","",-118.3272,34.0277
100312143,"04/29/2010",1830,18,"HAND GUN","Invest Cont","1500 W  36TH                         PL","",-118.3031,34.0219
100313889,"05/23/2010",2035,20,"REVOLVER","Invest Cont","3800    MONTCLAIR                    ST","",-118.326,34.0297
100314178,"05/27/2010",934,9,"HAND GUN","Invest Cont","2300 W  48TH                         ST","",-118.3181,34.0001
100315012,"06/07/2010",2030,20,"UNKNOWN FIREARM","Invest Cont","3300    MONTCLAIR                    ST","",-118.32,34.0297
100315079,"06/07/2010",2100,21,"UNKNOWN FIREARM","Invest Cont","3300    MONTCLAIR                    ST","",-118.32,34.0297
100315247,"06/12/2010",230,2,"HAND GUN","Invest Cont","4800 W  ADAMS                        BL","",-118.3451,34.0326
100316530,"06/28/2010",5,0,"UNKNOWN FIREARM","Invest Cont","5300 W  ADAMS                        BL","",-118.3587,34.0325
100317672,"07/13/2010",2300,23,"OTHER FIREARM","Invest Cont","1000 W  39TH                         ST","",-118.2915,34.0155
100319069,"07/28/2010",1600,16,"HAND GUN","Adult Other","4100    BUCKINGHAM                   RD","",-118.3423,34.0121
100321128,"09/02/2010",2040,20,"HAND GUN","Invest Cont","2600 S  CATALINA                     ST","",-118.2943,34.0328
100321129,"09/02/2010",2040,20,"HAND GUN","Invest Cont","2600 S  CATALINA                     ST","",-118.2943,34.0328
100323112,"10/02/2010",250,2,"SEMI-AUTOMATIC PISTOL","Invest Cont","DALTON","W  JEFFERSON                    BL",-118.304,34.0255
100323980,"10/15/2010",2330,23,"UNKNOWN FIREARM","Invest Cont","2800    ALSACE                       AV","",-118.3564,34.0299
100324304,"10/14/2010",1925,19,"UNKNOWN FIREARM","Invest Cont","2ND                          AV","MARTIN LUTHER KING JR        BL",-118.3193,34.0108
100324732,"10/23/2010",1800,18,"HAND GUN","Invest Cont","2800 S  WESTERN                      AV","",-118.3089,34.03
100325470,"11/04/2010",2115,21,"SEMI-AUTOMATIC PISTOL","Invest Cont","2700    CLYDE                        AV","",-118.3677,34.0305
100325630,"11/07/2010",1640,16,"UNKNOWN FIREARM","Invest Cont","800 W  41ST                         ST","",-118.2872,34.0092
100326593,"11/22/2010",1255,12,"HAND GUN","Invest Cont","2600    DALTON                       AV","",-118.3041,34.0327
100328247,"12/17/2010",240,2,"UNKNOWN FIREARM","Invest Cont","800 W  43RD                         ST","",-118.2872,34.0055
100328378,"12/19/2010",2225,22,"HAND GUN","Invest Cont","29TH","WELLINGTON                   RD",-118.3384,34.0295
100329041,"12/31/2010",2110,21,"UNKNOWN FIREARM","Invest Cont","1100    EXPOSITION                   BL","",-118.2944,34.0182
100400511,"01/03/2010",410,4,"UNKNOWN FIREARM","Invest Cont","5100    HUNTINGTON                   DR","",-118.1718,34.089
100400635,"02/15/2010",2020,20,"UNKNOWN FIREARM","Invest Cont","SPENCE                       ST","SISKIYOU                     ST",-118.1992,34.0256
100400679,"02/28/2010",1930,19,"HAND GUN","Invest Cont","5TH                          ST","ESTUDILLO                    AV",-118.195,34.0311
100400696,"03/04/2010",2035,20,"SEMI-AUTOMATIC PISTOL","Invest Cont","5000    WILLIAMS                     PL","",-118.1767,34.0675
100400748,"03/20/2010",2345,23,"UNKNOWN FIREARM","Invest Cont","2600    DOBINSON                     ST","",-118.2001,34.0514
100400749,"03/21/2010",1,0,"HAND GUN","Invest Cont","300 E  AVENUE 31","",-118.2132,34.081
100400800,"04/05/2010",200,2,"HAND GUN","Invest Cont","3000    WINTER                       ST","",-118.1979,34.0475
100400804,"04/05/2010",2230,22,"HAND GUN","Invest Cont","3100    WINTER                       ST","",-118.1964,34.0468
100400819,"04/08/2010",2225,22,"UNKNOWN FIREARM","Invest Cont","2800 E  1ST                          ST","",-118.2048,34.0415
100400829,"04/11/2010",1655,16,"UNKNOWN FIREARM","Invest Cont","4300    HUNTINGTON                   DR","",-118.1925,34.0793
100400989,"05/23/2010",305,3,"UNKNOWN FIREARM","Invest Cont","2400    EASTLAKE                     AV","",-118.2078,34.0738
100401000,"05/29/2010",2350,23,"REVOLVER","Invest Cont","4300    HUNTINGTON                   DR","",-118.1925,34.0793
100401001,"05/29/2010",2125,21,"SEMI-AUTOMATIC PISTOL","Invest Cont","2100    VALLEJO                      ST","",-118.2175,34.0707
100401099,"06/29/2010",10,0,"UNKNOWN FIREARM","Invest Cont","2200    ALHAMBRA                     AV","",-118.215,34.0636
100401146,"07/14/2010",2325,23,"UNKNOWN FIREARM","Invest Cont","4400    JASPER                       ST","",-118.1885,34.08
100401189,"07/23/2010",105,1,"SEMI-AUTOMATIC PISTOL","Invest Cont","MCKENZIE","MERCURY",-118.1907,34.0859
100401296,"08/14/2010",2242,22,"UNKNOWN FIREARM","Invest Cont","1000    TREMONT                      ST","",-118.1978,34.0528
100401354,"08/29/2010",2035,20,"UNKNOWN FIREARM","Invest Cont","2800    GRIFFIN                      AV","",-118.2119,34.0793
100401355,"08/30/2010",1615,16,"UNKNOWN FIREARM","Invest Cont","2700 E  3RD                          ST","",-118.2075,34.0397
100401647,"11/19/2010",1900,19,"HAND GUN","Invest Cont","1800 E  5TH                          ST","",-118.2196,34.0415
100401673,"11/27/2010",1600,16,"UNKNOWN FIREARM","Invest Cont","2000    HOLLENBECK                   DR","",-118.2194,34.0379
100404219,"01/05/2010",2300,23,"UNKNOWN FIREARM","Invest Cont","4300    HUNTINGTON                   DR","",-118.1925,34.0793
100404365,"01/08/2010",1745,17,"UNKNOWN FIREARM","Invest Cont","2400 E  7TH                          ST","",-118.2196,34.0334
100406018,"02/12/2010",1800,18,"OTHER FIREARM","Invest Cont","300 N  SAVANNAH                     ST","",-118.2026,34.0425
100406019,"02/12/2010",1900,19,"OTHER FIREARM","Invest Cont","300 N  SAVANNAH                     ST","",-118.2026,34.0425
100408267,"04/05/2010",2230,22,"HAND GUN","Invest Cont","3100    WINTER                       ST","",-118.1964,34.0468
100409062,"04/24/2010",340,3,"OTHER FIREARM","Invest Cont","2800    SIERRA                       ST","",-118.2017,34.0787
100409076,"04/24/2010",1200,12,"SEMI-AUTOMATIC PISTOL","Invest Cont","WABASH","MOTT",-118.198,34.0505
100409403,"05/02/2010",1455,14,"HAND GUN","Invest Cont","MOTT                         ST","2ND                          ST",-118.207,34.0405
100409554,"05/05/2010",2140,21,"SEMI-AUTOMATIC PISTOL","Invest Cont","2600    SICHEL                       ST","",-118.2131,34.0765
100410318,"05/22/2010",1150,11,"HAND GUN","Invest Cont","1800    MARNEY                       AV","",-118.1766,34.0625
100410391,"05/23/2010",2150,21,"UNKNOWN FIREARM","Invest Cont","300 E  AVENUE 26","",-118.2131,34.0765
100411451,"06/16/2010",130,1,"UNKNOWN FIREARM","Invest Cont","1800    ALBION                       ST","",-118.2212,34.0697
100411941,"06/29/2010",1200,12,"REVOLVER","Juv Arrest","CHICAGO                      ST","CESAR E CHAVEZ               AV",-118.2102,34.0479
100412460,"07/13/2010",1715,17,"OTHER FIREARM","Invest Cont","1800    HANCOCK                      ST","",-118.209,34.0649
100412478,"07/13/2010",1845,18,"OTHER FIREARM","Invest Cont","2600    SICHEL                       ST","",-118.2131,34.0765
100412479,"07/13/2010",1715,17,"OTHER FIREARM","Invest Cont","1800    HANCOCK                      ST","",-118.209,34.0649
100412669,"07/18/2010",5,0,"HAND GUN","Invest Cont","400 S  AVENUE 20","",-118.2182,34.0691
100413902,"08/11/2010",2145,21,"UNKNOWN FIREARM","Invest Cont","4400    HUNTINGTON                   DR","",-118.1904,34.0816
100414006,"08/16/2010",730,7,"HAND GUN","Invest Cont","1800    HANCOCK                      ST","",-118.209,34.0649
100414333,"08/23/2010",2330,23,"OTHER FIREARM","Adult Arrest","1000    STONE                        ST","",-118.1944,34.0489
100414441,"08/24/2010",115,1,"UNKNOWN FIREARM","Invest Cont","3200    GLENN                        AV","",-118.21,34.0209
100414592,"08/29/2010",2035,20,"UNKNOWN FIREARM","Invest Cont","2800    GRIFFIN                      AV","",-118.2119,34.0793
100415046,"09/12/2010",220,2,"UNKNOWN FIREARM","Invest Cont","200 N  CHICAGO                      ST","",-118.2114,34.0462
100415052,"09/11/2010",2330,23,"UNKNOWN FIREARM","Invest Cont","2400    MALABAR                      ST","",-118.2055,34.0503
100415332,"09/19/2010",1800,18,"UNKNOWN FIREARM","Invest Cont","DALY","MANITOU",-118.2156,34.0719
100416014,"10/03/2010",2030,20,"UNKNOWN FIREARM","Invest Cont","LOWELL","ALHAMBRA",-118.1624,34.0791
100416333,"10/11/2010",2200,22,"SHOTGUN","Invest Cont","2800    LANFRANCO                    ST","",-118.2074,34.036
100416439,"10/13/2010",2255,22,"UNKNOWN FIREARM","Invest Cont","4400    MERCURY                      AV","",-118.1929,34.0859
100418268,"11/24/2010",955,9,"SEMI-AUTOMATIC PISTOL","Invest Cont","600 N  FICKETT                      ST","",-118.2041,34.0486
100418758,"12/07/2010",2200,22,"HAND GUN","Invest Cont","4400    PORTOLA                      AV","",-118.1705,34.097
100419069,"12/14/2010",2230,22,"UNKNOWN FIREARM","Invest Cont","2500    GANAHL                       ST","",-118.2006,34.0527
100419487,"12/25/2010",1200,12,"UNKNOWN FIREARM","Invest Cont","3500    LOCKE                        AV","",-118.1803,34.0859
100500583,"01/12/2010",2134,21,"OTHER FIREARM","Invest Cont","1500    BANNING                      BL","",-118.2596,33.7935
100500785,"02/12/2010",1530,15,"HAND GUN","Invest Cont","21400    HALLDALE                     AV","",-118.3017,33.8345
100500912,"03/01/2010",2050,20,"UNKNOWN FIREARM","Invest Cont","400 S  GAFFEY                       ST","",-118.2923,33.7406
100501180,"04/04/2010",2325,23,"SEMI-AUTOMATIC PISTOL","Invest Cont","1600 W  259TH                        ST","",-118.3043,33.7882
100501114,"03/26/2010",1745,17,"HAND GUN","Invest Cont","600 W  12TH                         ST","",-118.2902,33.7334
100501123,"03/27/2010",2050,20,"UNKNOWN FIREARM","Invest Cont","200 W  C                            ST","",-118.2632,33.7727
100501186,"04/05/2010",2150,21,"SEMI-AUTOMATIC PISTOL","Invest Cont","1100 S  PALOS VERDES                 ST","",-118.2814,33.7342
100501284,"04/21/2010",1850,18,"UNKNOWN FIREARM","Adult Arrest","600 W  14TH                         ST","",-118.2902,33.7315
100501316,"04/25/2010",1940,19,"UNKNOWN FIREARM","Invest Cont","1ST","WALKER",-118.3043,33.7434
100501364,"05/03/2010",2035,20,"HAND GUN","Invest Cont","DENNI","LAKME",-118.259,33.785
100501399,"05/07/2010",2140,21,"UNKNOWN FIREARM","Invest Cont","300 W  1ST                          ST","",-118.2835,33.7433
100501442,"05/12/2010",2200,22,"UNKNOWN FIREARM","Invest Cont","1300 W  254TH                        ST","",-118.2999,33.7938
100501573,"05/29/2010",310,3,"SEMI-AUTOMATIC PISTOL","Invest Cont","DRUMM                        AV","CRUCES                       ST",-118.2423,33.7945
100501834,"07/04/2010",2310,23,"HAND GUN","Adult Other","GAFFEY","CHANNEL",-118.2922,33.7538
100502556,"10/22/2010",2100,21,"UNKNOWN FIREARM","Invest Cont","1500 W  220TH                        ST","",-118.3038,33.828
100502631,"10/31/2010",1215,12,"HAND GUN","Invest Cont","DENNI","MCDONALD",-118.2714,33.7845
100502674,"11/07/2010",130,1,"SEMI-AUTOMATIC PISTOL","Invest Cont","1500 W  204TH                        ST","",-118.304,33.8449
100502786,"11/21/2010",1220,12,"HAND GUN","Invest Cont","300 W  3RD                          ST","",-118.2835,33.7415
100502787,"11/21/2010",1950,19,"SEMI-AUTOMATIC PISTOL","Invest Cont","14TH","GAFFEY",-118.2924,33.7315
100502899,"12/06/2010",1545,15,"HAND GUN","Invest Cont","600 W  12TH                         ST","",-118.2902,33.7334
100502951,"12/12/2010",30,0,"UNKNOWN FIREARM","Invest Cont","1400 W  225TH                        ST","",-118.3015,33.8223
100502978,"12/16/2010",2220,22,"UNKNOWN FIREARM","Invest Cont","1400 W  219TH                        ST","",-118.3016,33.8292
100503038,"12/25/2010",2350,23,"HAND GUN","Adult Arrest","ALMA                         ST","9TH                          ST",-118.299,33.7361
100505492,"01/31/2010",1515,15,"UNKNOWN FIREARM","Invest Cont","400 N  AVALON                       BL","",-118.262,33.7742
100505528,"02/01/2010",955,9,"RIFLE","Invest Cont","2100    JOHN S GIBSON                BL","",-118.2884,33.7577
100507302,"03/07/2010",200,2,"SEMI-AUTOMATIC PISTOL","Invest Cont","400 W  14TH                         ST","",-118.2857,33.7315
100508656,"03/30/2010",2320,23,"SEMI-AUTOMATIC PISTOL","Invest Cont","1500 E  CRUCES                       ST","",-118.2456,33.7935
100510324,"05/02/2010",1830,18,"UNKNOWN FIREARM","Invest Cont","500 W  37TH                         ST","",-118.2879,33.7106
100511002,"05/15/2010",2350,23,"UNKNOWN FIREARM","Invest Cont","1200    EUBANK                       AV","",-118.2555,33.787
100511229,"05/19/2010",1710,17,"UNKNOWN FIREARM","Invest Cont","BAYVIEW                      AV","F                            ST",-118.27,33.7767
100511376,"05/22/2010",1305,13,"HAND GUN","Adult Arrest","MARIGOLD","252ND",-118.2959,33.7958
100512162,"06/04/2010",1525,15,"UNKNOWN FIREARM","Invest Cont","700 W  14TH                         ST","",-118.2924,33.7315
100512598,"06/12/2010",1230,12,"UNKNOWN FIREARM","Invest Cont","26100    FRAMPTON                     AV","",-118.2999,33.7858
100513691,"07/03/2010",140,1,"UNKNOWN FIREARM","Invest Cont","GAFFEY","33RD",-118.2929,33.7143
